{
   "type": "FeatureCollection",
   "features": [
  {
    "type": "Feature",
    "geometry": {
       "type": "Point",
       "coordinates":  [ -97.801689,31.113674 ]
    },
    "properties": {
    "NAME":"ADVENTHEALTH CENTRAL TEXAS",
    "ADDRESS":"2201 SOUTH CLEAR CREEK ROAD",
    "CITY":"KILLEEN",
    "STATE":"TX",
    "ZIP":76549,
    "API ADDRESS":"2201 Clear Creek Rd, Killeen, TX 76549",
    "COUNTY":"BELL",
    "PHONE":2545198165,
    "BEDS":21
    }
  },
  {
    "type": "Feature",
    "geometry": {
       "type": "Point",
       "coordinates":  [ -97.19945,31.514413 ]
    },
    "properties": {
    "NAME":"ASCENSION PROVIDENCE",
    "ADDRESS":"6901 MEDICAL PARKWAY",
    "CITY":"WACO",
    "STATE":"TX",
    "ZIP":76712,
    "API ADDRESS":"6901 Medical Pkwy, Waco, TX 76712",
    "COUNTY":"MCLENNAN",
    "PHONE":2547514000,
    "BEDS":16
    }
  },
  {
    "type": "Feature",
    "geometry": {
       "type": "Point",
       "coordinates":  [ -97.852665,30.008842 ]
    },
    "properties": {
    "NAME":"ASCENSION SETON HAYS",
    "ADDRESS":"6001 KYLE PARKWAY",
    "CITY":"KYLE",
    "STATE":"TX",
    "ZIP":78640,
    "API ADDRESS":"6001 Kyle Pkwy, Kyle, TX 78640",
    "COUNTY":"HAYS",
    "PHONE":5125045058,
    "BEDS":14
    }
  },
  {
    "type": "Feature",
    "geometry": {
       "type": "Point",
       "coordinates":  [ -97.745402,30.304914 ]
    },
    "properties": {
    "NAME":"ASCENSION SETON MEDICAL CENTER AUSTIN",
    "ADDRESS":"1201 WEST 38TH STREET",
    "CITY":"AUSTIN",
    "STATE":"TX",
    "ZIP":78705,
    "API ADDRESS":"1201 W 38th St, Austin, TX 78705",
    "COUNTY":"TRAVIS",
    "PHONE":5123241000,
    "BEDS":42
    }
  },
  {
    "type": "Feature",
    "geometry": {
       "type": "Point",
       "coordinates":  [ -97.744736,30.405845 ]
    },
    "properties": {
    "NAME":"ASCENSION SETON NORTHWEST",
    "ADDRESS":"11113 RESEARCH BOULEVARD",
    "CITY":"AUSTIN",
    "STATE":"TX",
    "ZIP":78759,
    "API ADDRESS":"11113 Research Blvd, Austin, TX 78759",
    "COUNTY":"TRAVIS",
    "PHONE":5123246900,
    "BEDS":16
    }
  },
  {
    "type": "Feature",
    "geometry": {
       "type": "Point",
       "coordinates":  [ -97.651106,30.568164 ]
    },
    "properties": {
    "NAME":"ASCENSION SETON WILLIAMSON",
    "ADDRESS":"201 SETON PARKWAY",
    "CITY":"ROUND ROCK",
    "STATE":"TX",
    "ZIP":78665,
    "API ADDRESS":"201 Seton Pkwy, Round Rock, TX 78665",
    "COUNTY":"WILLIAMSON",
    "PHONE":5123244000,
    "BEDS":16
    }
  },
  {
    "type": "Feature",
    "geometry": {
       "type": "Point",
       "coordinates":  [ -94.11979,30.070357 ]
    },
    "properties": {
    "NAME":"BAPTIST HOSPITALS OF SOUTHEAST TEXAS",
    "ADDRESS":"3080 COLLEGE STREET",
    "CITY":"BEAUMONT",
    "STATE":"TX",
    "ZIP":77701,
    "API ADDRESS":"3080 College St, Beaumont, TX 77701",
    "COUNTY":"JEFFERSON",
    "PHONE":4092125000,
    "BEDS":51
    }
  },
  {
    "type": "Feature",
    "geometry": {
       "type": "Point",
       "coordinates":  [ -97.345545,32.729334 ]
    },
    "properties": {
    "NAME":"BAYLOR SCOTT & WHITE ALL SAINTS MEDICAL CENTER - FORT WORTH",
    "ADDRESS":"1400 8TH AVE",
    "CITY":"FORT WORTH",
    "STATE":"TX",
    "ZIP":76104,
    "API ADDRESS":"1400 8th Ave, Fort Worth, TX 76104",
    "COUNTY":"TARRANT",
    "PHONE":8179262544,
    "BEDS":64
    }
  },
  {
    "type": "Feature",
    "geometry": {
       "type": "Point",
       "coordinates":  [ -96.770669,33.11431 ]
    },
    "properties": {
    "NAME":"BAYLOR SCOTT & WHITE MEDICAL CENTER - CENTENNIAL",
    "ADDRESS":"12505 LEBANON RD",
    "CITY":"FRISCO",
    "STATE":"TX",
    "ZIP":75035,
    "API ADDRESS":"12505 Lebanon Rd, Frisco, TX 75035",
    "COUNTY":"COLLIN",
    "PHONE":4697648000,
    "BEDS":10
    }
  },
  {
    "type": "Feature",
    "geometry": {
       "type": "Point",
       "coordinates":  [ -96.293826,30.579234 ]
    },
    "properties": {
    "NAME":"BAYLOR SCOTT & WHITE MEDICAL CENTER - COLLEGE STATION",
    "ADDRESS":"700 SCOTT AND WHITE DR",
    "CITY":"COLLEGE STATION",
    "STATE":"TX",
    "ZIP":77845,
    "API ADDRESS":"College Station, TX 77845",
    "COUNTY":"BRAZOS",
    "PHONE":9792070100,
    "BEDS":17
    }
  },
  {
    "type": "Feature",
    "geometry": {
       "type": "Point",
       "coordinates":  [ -96.837987,33.10504 ]
    },
    "properties": {
    "NAME":"BAYLOR SCOTT & WHITE MEDICAL CENTER - FRISCO",
    "ADDRESS":"5601 WARREN PARKWAY",
    "CITY":"FRISCO",
    "STATE":"TX",
    "ZIP":75034,
    "API ADDRESS":"5601 Warren Pkwy, Frisco, TX 75034",
    "COUNTY":"COLLIN",
    "PHONE":2144075000,
    "BEDS":15
    }
  },
  {
    "type": "Feature",
    "geometry": {
       "type": "Point",
       "coordinates":  [ -97.093581,32.933873 ]
    },
    "properties": {
    "NAME":"BAYLOR SCOTT & WHITE MEDICAL CENTER - GRAPEVINE",
    "ADDRESS":"1650 W COLLEGE ST",
    "CITY":"GRAPEVINE",
    "STATE":"TX",
    "ZIP":76051,
    "API ADDRESS":"1650 W College St, Grapevine, TX 76051",
    "COUNTY":"TARRANT",
    "PHONE":8174811588,
    "BEDS":38
    }
  },
  {
    "type": "Feature",
    "geometry": {
       "type": "Point",
       "coordinates":  [ -97.157815,31.487525 ]
    },
    "properties": {
    "NAME":"BAYLOR SCOTT & WHITE MEDICAL CENTER - HILLCREST",
    "ADDRESS":"100 HILLCREST MEDICAL BLV",
    "CITY":"WACO",
    "STATE":"TX",
    "ZIP":76712,
    "API ADDRESS":"120 Hillcrest Medical Blvd, Waco, TX 76712",
    "COUNTY":"MCLENNAN",
    "PHONE":2542029414,
    "BEDS":31
    }
  },
  {
    "type": "Feature",
    "geometry": {
       "type": "Point",
       "coordinates":  [ -96.508664,32.917635 ]
    },
    "properties": {
    "NAME":"BAYLOR SCOTT & WHITE MEDICAL CENTER - LAKE POINTE",
    "ADDRESS":"6800 SCENIC DR",
    "CITY":"ROWLETT",
    "STATE":"TX",
    "ZIP":75088,
    "API ADDRESS":"6800 Scenic Dr, Rowlett, TX 75088",
    "COUNTY":"ROCKWALL",
    "PHONE":9725208000,
    "BEDS":28
    }
  },
  {
    "type": "Feature",
    "geometry": {
       "type": "Point",
       "coordinates":  [ -97.971449,30.332918 ]
    },
    "properties": {
    "NAME":"BAYLOR SCOTT & WHITE MEDICAL CENTER - LAKEWAY",
    "ADDRESS":"100 MEDICAL PKWY",
    "CITY":"LAKEWAY",
    "STATE":"TX",
    "ZIP":78738,
    "API ADDRESS":"100 Medical Pkwy, Lakeway, TX 78738",
    "COUNTY":"TRAVIS",
    "PHONE":5126545000,
    "BEDS":9
    }
  },
  {
    "type": "Feature",
    "geometry": {
       "type": "Point",
       "coordinates":  [ -98.304593,30.512921 ]
    },
    "properties": {
    "NAME":"BAYLOR SCOTT & WHITE MEDICAL CENTER - MARBLE FALLS",
    "ADDRESS":"810 W HIGHWAY 71",
    "CITY":"MARBLE FALLS",
    "STATE":"TX",
    "ZIP":78654,
    "API ADDRESS":"810 W Sh 71, Marble Falls, TX 78654",
    "COUNTY":"BURNET",
    "PHONE":8302018000,
    "BEDS":8
    }
  },
  {
    "type": "Feature",
    "geometry": {
       "type": "Point",
       "coordinates":  [ -96.682581,33.221085 ]
    },
    "properties": {
    "NAME":"BAYLOR SCOTT & WHITE MEDICAL CENTER - MCKINNEY",
    "ADDRESS":"5252 W UNIVERSITY DR",
    "CITY":"MCKINNEY",
    "STATE":"TX",
    "ZIP":75071,
    "API ADDRESS":"5252 W University Dr, McKinney, TX 75071",
    "COUNTY":"COLLIN",
    "PHONE":4697642200,
    "BEDS":16
    }
  },
  {
    "type": "Feature",
    "geometry": {
       "type": "Point",
       "coordinates":  [ -97.363854,31.077709 ]
    },
    "properties": {
    "NAME":"BAYLOR SCOTT & WHITE MEDICAL CENTER - TEMPLE",
    "ADDRESS":"2401 S 31ST ST",
    "CITY":"TEMPLE",
    "STATE":"TX",
    "ZIP":76508,
    "API ADDRESS":"2401 S 31st St, Temple, TX 76504",
    "COUNTY":"BELL",
    "PHONE":2547242111,
    "BEDS":24
    }
  },
  {
    "type": "Feature",
    "geometry": {
       "type": "Point",
       "coordinates":  [ -96.858089,32.427936 ]
    },
    "properties": {
    "NAME":"BAYLOR SCOTT & WHITE MEDICAL CENTER - WAXAHACHIE",
    "ADDRESS":"2400 N IH 35 E",
    "CITY":"WAXAHACHIE",
    "STATE":"TX",
    "ZIP":75165,
    "API ADDRESS":"2400 N I-35 E, Waxahachie, TX 75165",
    "COUNTY":"ELLIS",
    "PHONE":4698434000,
    "BEDS":9
    }
  },
  {
    "type": "Feature",
    "geometry": {
       "type": "Point",
       "coordinates":  [ -96.779474,32.790908 ]
    },
    "properties": {
    "NAME":"BAYLOR UNIVERSITY MEDICAL CENTER",
    "ADDRESS":"3500 GASTON AVENUE",
    "CITY":"DALLAS",
    "STATE":"TX",
    "ZIP":75246,
    "API ADDRESS":"3500 Gaston Ave, Dallas, TX 75246",
    "COUNTY":"DALLAS",
    "PHONE":2148200111,
    "BEDS":36
    }
  },
  {
    "type": "Feature",
    "geometry": {
       "type": "Point",
       "coordinates":  [ -102.267155,33.187643 ]
    },
    "properties": {
    "NAME":"BROWNFIELD REGIONAL MEDICAL CENTER",
    "ADDRESS":"705 E FELT ST",
    "CITY":"BROWNFIELD",
    "STATE":"TX",
    "ZIP":79316,
    "API ADDRESS":"705 E Felt St, Brownfield, TX 79316",
    "COUNTY":"TERRY",
    "PHONE":8066373551,
    "BEDS":5
    }
  },
  {
    "type": "Feature",
    "geometry": {
       "type": "Point",
       "coordinates":  [ -96.885247,33.028804 ]
    },
    "properties": {
    "NAME":"CARROLLTON REGIONAL MEDICAL CENTER",
    "ADDRESS":"4343 NORTH JOSEY LANE",
    "CITY":"CARROLLTON",
    "STATE":"TX",
    "ZIP":75010,
    "API ADDRESS":"4343 N Josey Ln, Carrollton, TX 75010",
    "COUNTY":"DENTON",
    "PHONE":9724921010,
    "BEDS":59
    }
  },
  {
    "type": "Feature",
    "geometry": {
       "type": "Point",
       "coordinates":  [ -97.812177,30.532424 ]
    },
    "properties": {
    "NAME":"CEDAR PARK REGIONAL MEDICAL CENTER",
    "ADDRESS":"1401 MEDICAL PARKWAY",
    "CITY":"CEDAR PARK",
    "STATE":"TX",
    "ZIP":78613,
    "API ADDRESS":"1401 Medical Pkwy, Cedar Park, TX 78613",
    "COUNTY":"WILLIAMSON",
    "PHONE":5125287000,
    "BEDS":18
    }
  },
  {
    "type": "Feature",
    "geometry": {
       "type": "Point",
       "coordinates":  [ -95.452534,29.03185 ]
    },
    "properties": {
    "NAME":"CHI ST LUKES HEALTH - BRAZOSPORT",
    "ADDRESS":"100 MEDICAL DRIVE",
    "CITY":"LAKE JACKSON",
    "STATE":"TX",
    "ZIP":77566,
    "API ADDRESS":"100 Medical Dr, Lake Jackson, TX 77566",
    "COUNTY":"BRAZORIA",
    "PHONE":9792974411,
    "BEDS":16
    }
  },
  {
    "type": "Feature",
    "geometry": {
       "type": "Point",
       "coordinates":  [ -94.938594,30.729937 ]
    },
    "properties": {
    "NAME":"CHI ST LUKES HEALTH - MEMORIAL LIVINGSTON",
    "ADDRESS":"1717 HIGHWAY 59 BYPASS",
    "CITY":"LIVINGSTON",
    "STATE":"TX",
    "ZIP":77351,
    "API ADDRESS":"1717 US Highway 59th Loop N, Livingston, TX 77351",
    "COUNTY":"POLK",
    "PHONE":9363298700,
    "BEDS":4
    }
  },
  {
    "type": "Feature",
    "geometry": {
       "type": "Point",
       "coordinates":  [ -94.367794,32.536564 ]
    },
    "properties": {
    "NAME":"CHRISTUS GOOD SHEPHERD MEDICAL CENTER - MARSHALL",
    "ADDRESS":"811 SOUTH WASHINGTON",
    "CITY":"MARSHALL",
    "STATE":"TX",
    "ZIP":75670,
    "API ADDRESS":"811 S Washington Ave, Marshall, TX 75670",
    "COUNTY":"HARRISON",
    "PHONE":9039276000,
    "BEDS":11
    }
  },
  {
    "type": "Feature",
    "geometry": {
       "type": "Point",
       "coordinates":  [ -98.123258,29.715466 ]
    },
    "properties": {
    "NAME":"CHRISTUS SANTA ROSA HOSPITAL - NEW BRAUNFELS",
    "ADDRESS":"600 NORTH UNION AVENUE",
    "CITY":"NEW BRAUNFELS",
    "STATE":"TX",
    "ZIP":78130,
    "API ADDRESS":"600 N Union Ave, New Braunfels, TX 78130",
    "COUNTY":"COMAL",
    "PHONE":8306062170,
    "BEDS":10
    }
  },
  {
    "type": "Feature",
    "geometry": {
       "type": "Point",
       "coordinates":  [ -97.945825,29.85279 ]
    },
    "properties": {
    "NAME":"CHRISTUS SANTA ROSA HOSPITAL - SAN MARCOS",
    "ADDRESS":"1301 WONDER WORLD DRIVE",
    "CITY":"SAN MARCOS",
    "STATE":"TX",
    "ZIP":78666,
    "API ADDRESS":"1301 Wonder World Dr, San Marcos, TX 78666",
    "COUNTY":"HAYS",
    "PHONE":5123538979,
    "BEDS":20
    }
  },
  {
    "type": "Feature",
    "geometry": {
       "type": "Point",
       "coordinates":  [ -98.695949,29.466852 ]
    },
    "properties": {
    "NAME":"CHRISTUS SANTA ROSA HOSPITAL - WESTOVER HILLS",
    "ADDRESS":"11212 STATE HIGHWAY 151",
    "CITY":"SAN ANTONIO",
    "STATE":"TX",
    "ZIP":78251,
    "API ADDRESS":"11212 State Hwy 151, San Antonio, TX 78251",
    "COUNTY":"BEXAR",
    "PHONE":2107038000,
    "BEDS":12
    }
  },
  {
    "type": "Feature",
    "geometry": {
       "type": "Point",
       "coordinates":  [ -100.917495,32.688155 ]
    },
    "properties": {
    "NAME":"COGDELL MEMORIAL HOSPITAL",
    "ADDRESS":"1700 COGDELL BLVD",
    "CITY":"SNYDER",
    "STATE":"TX",
    "ZIP":79549,
    "API ADDRESS":"1700 Cogdell Blvd, Snyder, TX 79549",
    "COUNTY":"SCURRY",
    "PHONE":3255747437,
    "BEDS":1
    }
  },
  {
    "type": "Feature",
    "geometry": {
       "type": "Point",
       "coordinates":  [ -99.425473,31.828809 ]
    },
    "properties": {
    "NAME":"COLEMAN COUNTY MEDICAL CENTER COMPANY",
    "ADDRESS":"310 SOUTH PECOS STREET",
    "CITY":"COLEMAN",
    "STATE":"TX",
    "ZIP":76834,
    "API ADDRESS":"310 S Pecos St, Coleman, TX 76834",
    "COUNTY":"COLEMAN",
    "PHONE":3256252135,
    "BEDS":2
    }
  },
  {
    "type": "Feature",
    "geometry": {
       "type": "Point",
       "coordinates":  [ -101.900299,33.573954 ]
    },
    "properties": {
    "NAME":"COVENANT CHILDRENS HOSPITAL",
    "ADDRESS":"4015 22ND PLACE",
    "CITY":"LUBBOCK",
    "STATE":"TX",
    "ZIP":79410,
    "API ADDRESS":"4015 22nd Pl, Lubbock, TX 79410",
    "COUNTY":"LUBBOCK",
    "PHONE":8067257960,
    "BEDS":42
    }
  },
  {
    "type": "Feature",
    "geometry": {
       "type": "Point",
       "coordinates":  [ -102.368168,33.572882 ]
    },
    "properties": {
    "NAME":"COVENANT HOSPITAL LEVELLAND",
    "ADDRESS":"1900 COLLEGE AVENUE",
    "CITY":"LEVELLAND",
    "STATE":"TX",
    "ZIP":79336,
    "API ADDRESS":"1900 S College Ave, Levelland, TX 79336",
    "COUNTY":"HOCKLEY",
    "PHONE":8068944963,
    "BEDS":4
    }
  },
  {
    "type": "Feature",
    "geometry": {
       "type": "Point",
       "coordinates":  [ -97.283053,29.112742 ]
    },
    "properties": {
    "NAME":"CUERO REGIONAL HOSPITAL",
    "ADDRESS":"2550 NORTH ESPLANADE",
    "CITY":"CUERO",
    "STATE":"TX",
    "ZIP":77954,
    "API ADDRESS":"2550 N Esplanade St, Cuero, TX 77954",
    "COUNTY":"DE WITT",
    "PHONE":3612756191,
    "BEDS":2
    }
  },
  {
    "type": "Feature",
    "geometry": {
       "type": "Point",
       "coordinates":  [ -96.60129,32.778628 ]
    },
    "properties": {
    "NAME":"DALLAS REGIONAL MEDICAL CENTER",
    "ADDRESS":"1011 NORTH GALLOWAY AVE",
    "CITY":"MESQUITE",
    "STATE":"TX",
    "ZIP":75149,
    "API ADDRESS":"1011 N Galloway Ave, Mesquite, TX 75149",
    "COUNTY":"DALLAS",
    "PHONE":2143207787,
    "BEDS":14
    }
  },
  {
    "type": "Feature",
    "geometry": {
       "type": "Point",
       "coordinates":  [ -106.351462,31.756644 ]
    },
    "properties": {
    "NAME":"DEL SOL MEDICAL CENTER A CAMPUS OF LPDS HEALTHCARE",
    "ADDRESS":"10301 GATEWAY BOULEVARD WEST",
    "CITY":"EL PASO",
    "STATE":"TX",
    "ZIP":79925,
    "API ADDRESS":"10301 Gateway Blvd W, El Paso, TX 79925",
    "COUNTY":"EL PASO",
    "PHONE":9155959000,
    "BEDS":29
    }
  },
  {
    "type": "Feature",
    "geometry": {
       "type": "Point",
       "coordinates":  [ -99.863209,28.519615 ]
    },
    "properties": {
    "NAME":"DIMMIT REGIONAL HOSPITAL",
    "ADDRESS":"704 HOSPITAL DRIVE",
    "CITY":"CARRIZO SPRINGS",
    "STATE":"TX",
    "ZIP":78834,
    "API ADDRESS":"704 Hospital Dr, Carrizo Springs, TX 78834",
    "COUNTY":"DIMMIT",
    "PHONE":8308762424,
    "BEDS":4
    }
  },
  {
    "type": "Feature",
    "geometry": {
       "type": "Point",
       "coordinates":  [ -99.476413,27.607033 ]
    },
    "properties": {
    "NAME":"DOCTORS HOSPITAL OF LAREDO",
    "ADDRESS":"10700 MCPHERSON ROAD",
    "CITY":"LAREDO",
    "STATE":"TX",
    "ZIP":78045,
    "API ADDRESS":"10700 McPherson Rd, Laredo, TX 78045",
    "COUNTY":"WEBB",
    "PHONE":9565232000,
    "BEDS":29
    }
  },
  {
    "type": "Feature",
    "geometry": {
       "type": "Point",
       "coordinates":  [ -100.455385,28.71316 ]
    },
    "properties": {
    "NAME":"FORT DUNCAN REGIONAL MEDICAL CENTER",
    "ADDRESS":"3333 NORTH FOSTER MALDONADO",
    "CITY":"EAGLE PASS",
    "STATE":"TX",
    "ZIP":78852,
    "API ADDRESS":"3333 N Foster Maldonado Blvd, Eagle Pass, TX 78852",
    "COUNTY":"MAVERICK",
    "PHONE":8307735321,
    "BEDS":14
    }
  },
  {
    "type": "Feature",
    "geometry": {
       "type": "Point",
       "coordinates":  [ -97.588686,31.77775 ]
    },
    "properties": {
    "NAME":"GOODALL-WITCHER HOSPITAL",
    "ADDRESS":"101 POSEY AVE",
    "CITY":"CLIFTON",
    "STATE":"TX",
    "ZIP":76634,
    "API ADDRESS":"101 Posey Ave, Clifton, TX 76634",
    "COUNTY":"BOSQUE",
    "PHONE":2546758322,
    "BEDS":2
    }
  },
  {
    "type": "Feature",
    "geometry": {
       "type": "Point",
       "coordinates":  [ -98.583961,33.089763 ]
    },
    "properties": {
    "NAME":"GRAHAM HOSPITAL DISTRICT",
    "ADDRESS":"1301 MONTGOMERY ROAD",
    "CITY":"GRAHAM",
    "STATE":"TX",
    "ZIP":76450,
    "API ADDRESS":"1301 Montgomery Rd, Graham, TX 76450",
    "COUNTY":"YOUNG",
    "PHONE":9405493400,
    "BEDS":5
    }
  },
  {
    "type": "Feature",
    "geometry": {
       "type": "Point",
       "coordinates":  [ -97.947397,29.567935 ]
    },
    "properties": {
    "NAME":"GUADALUPE REGIONAL MEDICAL CENTER",
    "ADDRESS":"1215 EAST COURT STREET",
    "CITY":"SEGUIN",
    "STATE":"TX",
    "ZIP":78155,
    "API ADDRESS":"1215 E Court St, Seguin, TX 78155",
    "COUNTY":"GUADALUPE",
    "PHONE":8303792411,
    "BEDS":10
    }
  },
  {
    "type": "Feature",
    "geometry": {
       "type": "Point",
       "coordinates":  [ -97.667502,26.255523 ]
    },
    "properties": {
    "NAME":"HARLINGEN MEDICAL CENTER",
    "ADDRESS":"5501 SOUTH EXPRESSWAY 77",
    "CITY":"HARLINGEN",
    "STATE":"TX",
    "ZIP":78550,
    "API ADDRESS":"Harlingen, TX 78550",
    "COUNTY":"CAMERON",
    "PHONE":9563651000,
    "BEDS":8
    }
  },
  {
    "type": "Feature",
    "geometry": {
       "type": "Point",
       "coordinates":  [ -95.393774,29.712675 ]
    },
    "properties": {
    "NAME":"HARRIS HEALTH SYSTEM BEN TAUB HOSPITAL",
    "ADDRESS":"1504 TAUB LOOP",
    "CITY":"HOUSTON",
    "STATE":"TX",
    "ZIP":77030,
    "API ADDRESS":"1504 Taub Loop, Houston, TX 77030",
    "COUNTY":"HARRIS",
    "PHONE":3464260478,
    "BEDS":42
    }
  },
  {
    "type": "Feature",
    "geometry": {
       "type": "Point",
       "coordinates":  [ -95.310943,29.811429 ]
    },
    "properties": {
    "NAME":"HARRIS HEALTH SYSTEM LYNDON B JOHNSON HOSPITAL",
    "ADDRESS":"5656 KELLEY STREET",
    "CITY":"HOUSTON",
    "STATE":"TX",
    "ZIP":77026,
    "API ADDRESS":"5656 Kelley St, Houston, TX 77026",
    "COUNTY":"HARRIS",
    "PHONE":3464260478,
    "BEDS":19
    }
  },
  {
    "type": "Feature",
    "geometry": {
       "type": "Point",
       "coordinates":  [ -95.126216,29.539812 ]
    },
    "properties": {
    "NAME":"HCA HOUSTON HEALTHCARE CLEAR LAKE",
    "ADDRESS":"500 MEDICAL CENTER BLVD",
    "CITY":"WEBSTER",
    "STATE":"TX",
    "ZIP":77598,
    "API ADDRESS":"500 Medical Center Blvd, Webster, TX 77598",
    "COUNTY":"HARRIS",
    "PHONE":2813322511,
    "BEDS":43
    }
  },
  {
    "type": "Feature",
    "geometry": {
       "type": "Point",
       "coordinates":  [ -95.254977,30.05008 ]
    },
    "properties": {
    "NAME":"HCA HOUSTON HEALTHCARE KINGWOOD",
    "ADDRESS":"22999 US HIGHWAY 59",
    "CITY":"KINGWOOD",
    "STATE":"TX",
    "ZIP":77339,
    "API ADDRESS":"22999 US Highway 59 N, Humble, TX 77339",
    "COUNTY":"MONTGOMERY",
    "PHONE":2813488001,
    "BEDS":36
    }
  },
  {
    "type": "Feature",
    "geometry": {
       "type": "Point",
       "coordinates":  [ -95.440495,30.030067 ]
    },
    "properties": {
    "NAME":"HCA HOUSTON HEALTHCARE NORTHWEST",
    "ADDRESS":"710 CYPRESS CREEK PARKWAY",
    "CITY":"HOUSTON",
    "STATE":"TX",
    "ZIP":77090,
    "API ADDRESS":"709 Cypress Station Dr, Houston, TX 77090",
    "COUNTY":"HARRIS",
    "PHONE":2814401000,
    "BEDS":52
    }
  },
  {
    "type": "Feature",
    "geometry": {
       "type": "Point",
       "coordinates":  [ -95.620728,30.0874 ]
    },
    "properties": {
    "NAME":"HCA HOUSTON HEALTHCARE TOMBALL",
    "ADDRESS":"605 HOLDERRIETH BOULEVARD",
    "CITY":"TOMBALL",
    "STATE":"TX",
    "ZIP":77375,
    "API ADDRESS":"605 Holderrieth Blvd, Tomball, TX 77375",
    "COUNTY":"HARRIS",
    "PHONE":2814017500,
    "BEDS":13
    }
  },
  {
    "type": "Feature",
    "geometry": {
       "type": "Point",
       "coordinates":  [ -95.594442,29.729197 ]
    },
    "properties": {
    "NAME":"HCA HOUSTON HEALTHCARE WEST",
    "ADDRESS":"12141 RICHMOND AVENUE",
    "CITY":"HOUSTON",
    "STATE":"TX",
    "ZIP":77082,
    "API ADDRESS":"12141 Richmond Ave, Houston, TX 77082",
    "COUNTY":"HARRIS",
    "PHONE":2815583444,
    "BEDS":18
    }
  },
  {
    "type": "Feature",
    "geometry": {
       "type": "Point",
       "coordinates":  [ -99.966048,31.908644 ]
    },
    "properties": {
    "NAME":"HENDRICK MEDICAL CENTER SOUTH",
    "ADDRESS":"6250 US HIGHWAY 83",
    "CITY":"ABILENE",
    "STATE":"TX",
    "ZIP":79606,
    "API ADDRESS":"6254 US Hwy 83, Winters, TX 79567",
    "COUNTY":"TAYLOR",
    "PHONE":3254281010,
    "BEDS":21
    }
  },
  {
    "type": "Feature",
    "geometry": {
       "type": "Point",
       "coordinates":  [ -102.413712,34.838958 ]
    },
    "properties": {
    "NAME":"HEREFORD REGIONAL MEDICAL CENTER",
    "ADDRESS":"540 WEST 15TH STREET",
    "CITY":"HEREFORD",
    "STATE":"TX",
    "ZIP":79045,
    "API ADDRESS":"540 W 15th St, Hereford, TX 79045",
    "COUNTY":"DEAF SMITH",
    "PHONE":8063642141,
    "BEDS":4
    }
  },
  {
    "type": "Feature",
    "geometry": {
       "type": "Point",
       "coordinates":  [ -97.098317,32.012365 ]
    },
    "properties": {
    "NAME":"HILL REGIONAL HOSPITAL",
    "ADDRESS":"101 CIRCLE DRIVE",
    "CITY":"HILLSBORO",
    "STATE":"TX",
    "ZIP":76645,
    "API ADDRESS":"101 Circle Dr, Hillsboro, TX 76645",
    "COUNTY":"HILL",
    "PHONE":2545808500,
    "BEDS":4
    }
  },
  {
    "type": "Feature",
    "geometry": {
       "type": "Point",
       "coordinates":  [ -94.979045,29.769072 ]
    },
    "properties": {
    "NAME":"HOUSTON METHODIST BAYTOWN HOSPITAL",
    "ADDRESS":"4401 GARTH RD",
    "CITY":"BAYTOWN",
    "STATE":"TX",
    "ZIP":77521,
    "API ADDRESS":"4401 Garth Rd, Baytown, TX 77521",
    "COUNTY":"HARRIS",
    "PHONE":2814208600,
    "BEDS":17
    }
  },
  {
    "type": "Feature",
    "geometry": {
       "type": "Point",
       "coordinates":  [ -95.631127,29.588964 ]
    },
    "properties": {
    "NAME":"HOUSTON METHODIST SUGAR LAND HOSPITAL",
    "ADDRESS":"16655 SOUTHWEST FWY",
    "CITY":"SUGAR LAND",
    "STATE":"TX",
    "ZIP":77479,
    "API ADDRESS":"16655 Southwest Fwy, Sugar Land, TX 77479",
    "COUNTY":"FORT BEND",
    "PHONE":2812747000,
    "BEDS":36
    }
  },
  {
    "type": "Feature",
    "geometry": {
       "type": "Point",
       "coordinates":  [ -95.451727,30.205188 ]
    },
    "properties": {
    "NAME":"HOUSTON METHODIST THE WOODLANDS HOSPITAL",
    "ADDRESS":"17201 I-45 SOUTH",
    "CITY":"THE WOODLANDS",
    "STATE":"TX",
    "ZIP":77385,
    "API ADDRESS":"17201 I-45 S, Shenandoah, TX 77385",
    "COUNTY":"MONTGOMERY",
    "PHONE":9362702000,
    "BEDS":40
    }
  },
  {
    "type": "Feature",
    "geometry": {
       "type": "Point",
       "coordinates":  [ -95.697905,29.787208 ]
    },
    "properties": {
    "NAME":"HOUSTON METHODIST WEST HOSPITAL",
    "ADDRESS":"18500 KATY FWY",
    "CITY":"HOUSTON",
    "STATE":"TX",
    "ZIP":77094,
    "API ADDRESS":"18500 Katy Fwy, Houston, TX 77094",
    "COUNTY":"HARRIS",
    "PHONE":8325221000,
    "BEDS":28
    }
  },
  {
    "type": "Feature",
    "geometry": {
       "type": "Point",
       "coordinates":  [ -95.551132,29.966597 ]
    },
    "properties": {
    "NAME":"HOUSTON METHODIST WILLOWBROOK HOSPITAL",
    "ADDRESS":"18220 STATE HIGHWAY 249",
    "CITY":"HOUSTON",
    "STATE":"TX",
    "ZIP":77070,
    "API ADDRESS":"18220 Tomball Pkwy, Houston, TX 77070",
    "COUNTY":"HARRIS",
    "PHONE":2817371000,
    "BEDS":24
    }
  },
  {
    "type": "Feature",
    "geometry": {
       "type": "Point",
       "coordinates":  [ -96.123918,33.122487 ]
    },
    "properties": {
    "NAME":"HUNT REGIONAL HEALTHCARE",
    "ADDRESS":"4215 JOE RAMSEY BOULEVARD",
    "CITY":"GREENVILLE",
    "STATE":"TX",
    "ZIP":75401,
    "API ADDRESS":"4215 Joe Ramsey Blvd, Greenville, TX 75401",
    "COUNTY":"HUNT",
    "PHONE":9034085000,
    "BEDS":25
    }
  },
  {
    "type": "Feature",
    "geometry": {
       "type": "Point",
       "coordinates":  [ -97.328127,32.726819 ]
    },
    "properties": {
    "NAME":"JOHN PETER SMITH HOSPITAL",
    "ADDRESS":"1500 S MAIN ST",
    "CITY":"FORT WORTH",
    "STATE":"TX",
    "ZIP":76104,
    "API ADDRESS":"1500 S Main St, Fort Worth, TX 76104",
    "COUNTY":"TARRANT",
    "PHONE":8179213431,
    "BEDS":40
    }
  },
  {
    "type": "Feature",
    "geometry": {
       "type": "Point",
       "coordinates":  [ -97.803711,32.432362 ]
    },
    "properties": {
    "NAME":"LAKE GRANBURY MEDICAL CENTER",
    "ADDRESS":"1310 PALUXY ROAD",
    "CITY":"GRANBURY",
    "STATE":"TX",
    "ZIP":76048,
    "API ADDRESS":"1310 Paluxy Rd, Granbury, TX 76048",
    "COUNTY":"HOOD",
    "PHONE":8175732273,
    "BEDS":5
    }
  },
  {
    "type": "Feature",
    "geometry": {
       "type": "Point",
       "coordinates":  [ -99.479962,27.530851 ]
    },
    "properties": {
    "NAME":"LAREDO MEDICAL CENTER",
    "ADDRESS":"1700 EAST SAUNDERS STREET",
    "CITY":"LAREDO",
    "STATE":"TX",
    "ZIP":78041,
    "API ADDRESS":"1700 E Saunders St, Laredo, TX 78041",
    "COUNTY":"WEBB",
    "PHONE":9567965000,
    "BEDS":34
    }
  },
  {
    "type": "Feature",
    "geometry": {
       "type": "Point",
       "coordinates":  [ -106.49823,31.770037 ]
    },
    "properties": {
    "NAME":"LAS PALMAS MEDICAL CENTER A CAMPUS OF LPDS HEALTHCARE",
    "ADDRESS":"1801 NORTH OREGON STREET",
    "CITY":"EL PASO",
    "STATE":"TX",
    "ZIP":79902,
    "API ADDRESS":"1801 N Oregon St, El Paso, TX 79902",
    "COUNTY":"EL PASO",
    "PHONE":9155211776,
    "BEDS":24
    }
  },
  {
    "type": "Feature",
    "geometry": {
       "type": "Point",
       "coordinates":  [ -94.728805,32.532185 ]
    },
    "properties": {
    "NAME":"LONGVIEW REGIONAL MEDICAL CENTER",
    "ADDRESS":"2901 NORTH FOURTH STREET",
    "CITY":"LONGVIEW",
    "STATE":"TX",
    "ZIP":75605,
    "API ADDRESS":"2901 N 4th St, Longview, TX 75605",
    "COUNTY":"GREGG",
    "PHONE":9037581818,
    "BEDS":17
    }
  },
  {
    "type": "Feature",
    "geometry": {
       "type": "Point",
       "coordinates":  [ -95.991914,28.980333 ]
    },
    "properties": {
    "NAME":"MATAGORDA REGIONAL MEDICAL CENTER",
    "ADDRESS":"104 7TH STREET",
    "CITY":"BAY CITY",
    "STATE":"TX",
    "ZIP":77414,
    "API ADDRESS":"104 7th St, Bay City, TX 77414",
    "COUNTY":"MATAGORDA",
    "PHONE":9792456383,
    "BEDS":6
    }
  },
  {
    "type": "Feature",
    "geometry": {
       "type": "Point",
       "coordinates":  [ -102.373391,31.845373 ]
    },
    "properties": {
    "NAME":"MEDICAL CENTER HOSPITAL",
    "ADDRESS":"500 W 4TH ST",
    "CITY":"ODESSA",
    "STATE":"TX",
    "ZIP":79761,
    "API ADDRESS":"500 W 4th St, Odessa, TX 79761",
    "COUNTY":"ECTOR",
    "PHONE":4326402413,
    "BEDS":30
    }
  },
  {
    "type": "Feature",
    "geometry": {
       "type": "Point",
       "coordinates":  [ -97.313977,32.89983 ]
    },
    "properties": {
    "NAME":"MEDICAL CITY ALLIANCE",
    "ADDRESS":"3101 N TARRANT PKWY",
    "CITY":"FORT WORTH",
    "STATE":"TX",
    "ZIP":76177,
    "API ADDRESS":"3101 N Tarrant Pkwy, Fort Worth, TX 76177",
    "COUNTY":"TARRANT",
    "PHONE":8176391100,
    "BEDS":17
    }
  },
  {
    "type": "Feature",
    "geometry": {
       "type": "Point",
       "coordinates":  [ -97.113928,32.690201 ]
    },
    "properties": {
    "NAME":"MEDICAL CITY ARLINGTON",
    "ADDRESS":"3301 MATLOCK RD",
    "CITY":"ARLINGTON",
    "STATE":"TX",
    "ZIP":76015,
    "API ADDRESS":"3301 Matlock Rd, Arlington, TX 76015",
    "COUNTY":"TARRANT",
    "PHONE":8174653241,
    "BEDS":53
    }
  },
  {
    "type": "Feature",
    "geometry": {
       "type": "Point",
       "coordinates":  [ -96.773229,32.911775 ]
    },
    "properties": {
    "NAME":"MEDICAL CITY DALLAS HOSPITAL",
    "ADDRESS":"7777 FOREST LN",
    "CITY":"DALLAS",
    "STATE":"TX",
    "ZIP":75230,
    "API ADDRESS":"7777 Forest Ln, Dallas, TX 75230",
    "COUNTY":"DALLAS",
    "PHONE":9725666000,
    "BEDS":68
    }
  },
  {
    "type": "Feature",
    "geometry": {
       "type": "Point",
       "coordinates":  [ -96.957303,32.902163 ]
    },
    "properties": {
    "NAME":"MEDICAL CITY LAS COLINAS",
    "ADDRESS":"6800 N MACARTHUR BLVD",
    "CITY":"IRVING",
    "STATE":"TX",
    "ZIP":75039,
    "API ADDRESS":"6800 N Macarthur Blvd, Irving, TX 75039",
    "COUNTY":"DALLAS",
    "PHONE":9729692000,
    "BEDS":21
    }
  },
  {
    "type": "Feature",
    "geometry": {
       "type": "Point",
       "coordinates":  [ -97.004532,33.044381 ]
    },
    "properties": {
    "NAME":"MEDICAL CITY LEWISVILLE",
    "ADDRESS":"500 W MAIN ST",
    "CITY":"LEWISVILLE",
    "STATE":"TX",
    "ZIP":75057,
    "API ADDRESS":"500 W Main St, Lewisville, TX 75057",
    "COUNTY":"DENTON",
    "PHONE":4693702707,
    "BEDS":28
    }
  },
  {
    "type": "Feature",
    "geometry": {
       "type": "Point",
       "coordinates":  [ -96.636911,33.159641 ]
    },
    "properties": {
    "NAME":"MEDICAL CITY MCKINNEY",
    "ADDRESS":"4500 MEDICAL CENTER DR",
    "CITY":"MCKINNEY",
    "STATE":"TX",
    "ZIP":75069,
    "API ADDRESS":"4500 Medical Center Dr, McKinney, TX 75069",
    "COUNTY":"COLLIN",
    "PHONE":9725478001,
    "BEDS":13
    }
  },
  {
    "type": "Feature",
    "geometry": {
       "type": "Point",
       "coordinates":  [ -97.785737,32.748269 ]
    },
    "properties": {
    "NAME":"MEDICAL CITY WEATHERFORD",
    "ADDRESS":"713 E ANDERSON ST",
    "CITY":"WEATHERFORD",
    "STATE":"TX",
    "ZIP":76086,
    "API ADDRESS":"713 E Anderson St, Weatherford, TX 76086",
    "COUNTY":"PARKER",
    "PHONE":6825821000,
    "BEDS":10
    }
  },
  {
    "type": "Feature",
    "geometry": {
       "type": "Point",
       "coordinates":  [ -95.731952,29.986183 ]
    },
    "properties": {
    "NAME":"MEMORIAL HERMANN CYPRESS HOSPITAL",
    "ADDRESS":"27800 NORTHWEST FREEWAY",
    "CITY":"CYPRESS",
    "STATE":"TX",
    "ZIP":77433,
    "API ADDRESS":"27700 Northwest Fwy, Cypress, TX 77433",
    "COUNTY":"HARRIS",
    "PHONE":3462314000,
    "BEDS":20
    }
  },
  {
    "type": "Feature",
    "geometry": {
       "type": "Point",
       "coordinates":  [ -95.43067,29.810888 ]
    },
    "properties": {
    "NAME":"MEMORIAL HERMANN GREATER HEIGHTS HOSPITAL",
    "ADDRESS":"1635 NORTH LOOP WEST",
    "CITY":"HOUSTON",
    "STATE":"TX",
    "ZIP":77008,
    "API ADDRESS":"1635 N Loop W, Houston, TX 77008",
    "COUNTY":"HARRIS",
    "PHONE":7138672000,
    "BEDS":22
    }
  },
  {
    "type": "Feature",
    "geometry": {
       "type": "Point",
       "coordinates":  [ -95.786189,29.787086 ]
    },
    "properties": {
    "NAME":"MEMORIAL HERMANN KATY HOSPITAL",
    "ADDRESS":"23900 KATY FREEWAY",
    "CITY":"KATY",
    "STATE":"TX",
    "ZIP":77494,
    "API ADDRESS":"23900 Katy Fwy, Katy, TX 77494",
    "COUNTY":"HARRIS",
    "PHONE":2816447000,
    "BEDS":27
    }
  },
  {
    "type": "Feature",
    "geometry": {
       "type": "Point",
       "coordinates":  [ -95.545763,29.781137 ]
    },
    "properties": {
    "NAME":"MEMORIAL HERMANN MEMORIAL CITY MEDICAL CENTER",
    "ADDRESS":"921 GESSNER ROAD",
    "CITY":"HOUSTON",
    "STATE":"TX",
    "ZIP":77024,
    "API ADDRESS":"921 Gessner Rd, Houston, TX 77024",
    "COUNTY":"HARRIS",
    "PHONE":7139323000,
    "BEDS":37
    }
  },
  {
    "type": "Feature",
    "geometry": {
       "type": "Point",
       "coordinates":  [ -95.273599,29.994309 ]
    },
    "properties": {
    "NAME":"MEMORIAL HERMANN NORTHEAST HOSPITAL",
    "ADDRESS":"18951 MEMORIAL NORTH",
    "CITY":"HUMBLE",
    "STATE":"TX",
    "ZIP":77338,
    "API ADDRESS":"18951 Memorial Blvd, Humble, TX 77338",
    "COUNTY":"HARRIS",
    "PHONE":2815407700,
    "BEDS":7
    }
  },
  {
    "type": "Feature",
    "geometry": {
       "type": "Point",
       "coordinates":  [ -95.521494,29.692477 ]
    },
    "properties": {
    "NAME":"MEMORIAL HERMANN SOUTHWEST HOSPITAL",
    "ADDRESS":"7600 BEECHNUT",
    "CITY":"HOUSTON",
    "STATE":"TX",
    "ZIP":77074,
    "API ADDRESS":"7600 Beechnut St, Houston, TX 77074",
    "COUNTY":"HARRIS",
    "PHONE":7134565000,
    "BEDS":24
    }
  },
  {
    "type": "Feature",
    "geometry": {
       "type": "Point",
       "coordinates":  [ -101.971275,35.864457 ]
    },
    "properties": {
    "NAME":"MEMORIAL HOSPITAL",
    "ADDRESS":"224 EAST SECOND STREET",
    "CITY":"DUMAS",
    "STATE":"TX",
    "ZIP":79029,
    "API ADDRESS":"224 E 2nd St, Dumas, TX 79029",
    "COUNTY":"MOORE",
    "PHONE":8069347801,
    "BEDS":4
    }
  },
  {
    "type": "Feature",
    "geometry": {
       "type": "Point",
       "coordinates":  [ -96.631909,28.620564 ]
    },
    "properties": {
    "NAME":"MEMORIAL MEDICAL CENTER",
    "ADDRESS":"815 NORTH VIRGINIA STREET",
    "CITY":"PORT LAVACA",
    "STATE":"TX",
    "ZIP":77979,
    "API ADDRESS":"815 N Virginia St, Port Lavaca, TX 77979",
    "COUNTY":"CALHOUN",
    "PHONE":3615526713,
    "BEDS":1
    }
  },
  {
    "type": "Feature",
    "geometry": {
       "type": "Point",
       "coordinates":  [ -96.825026,32.76156 ]
    },
    "properties": {
    "NAME":"METHODIST DALLAS MEDICAL CENTER",
    "ADDRESS":"1441 NORTH BECKLEY AVENUE",
    "CITY":"DALLAS",
    "STATE":"TX",
    "ZIP":75203,
    "API ADDRESS":"1441 N Beckley Ave, Dallas, TX 75203",
    "COUNTY":"DALLAS",
    "PHONE":2149478181,
    "BEDS":35
    }
  },
  {
    "type": "Feature",
    "geometry": {
       "type": "Point",
       "coordinates":  [ -96.876347,32.64507 ]
    },
    "properties": {
    "NAME":"METHODIST CHARLTON MEDICAL CENTER",
    "ADDRESS":"3500 W WHEATLAND RD",
    "CITY":"DALLAS",
    "STATE":"TX",
    "ZIP":75237,
    "API ADDRESS":"3500 W Wheatland Rd, Dallas, TX 75237",
    "COUNTY":"DALLAS",
    "PHONE":2149477777,
    "BEDS":37
    }
  },
  {
    "type": "Feature",
    "geometry": {
       "type": "Point",
       "coordinates":  [ -98.572298,29.507191 ]
    },
    "properties": {
    "NAME":"METHODIST HOSPITAL",
    "ADDRESS":"7700 FLOYD CURL DRIVE",
    "CITY":"SAN ANTONIO",
    "STATE":"TX",
    "ZIP":78229,
    "API ADDRESS":"7700 Floyd Curl Dr, San Antonio, TX 78229",
    "COUNTY":"BEXAR",
    "PHONE":2105754000,
    "BEDS":67
    }
  },
  {
    "type": "Feature",
    "geometry": {
       "type": "Point",
       "coordinates":  [ -98.476211,29.615388 ]
    },
    "properties": {
    "NAME":"METHODIST HOSPITAL | STONE OAK",
    "ADDRESS":"1139 EAST SONTERRA BLVD",
    "CITY":"SAN ANTONIO",
    "STATE":"TX",
    "ZIP":78258,
    "API ADDRESS":"1139 E Sonterra Blvd, San Antonio, TX 78258",
    "COUNTY":"BEXAR",
    "PHONE":2106382000,
    "BEDS":42
    }
  },
  {
    "type": "Feature",
    "geometry": {
       "type": "Point",
       "coordinates":  [ -97.094466,32.568385 ]
    },
    "properties": {
    "NAME":"METHODIST MANSFIELD MEDICAL CENTER",
    "ADDRESS":"2700 E BROAD ST",
    "CITY":"MANSFIELD",
    "STATE":"TX",
    "ZIP":76063,
    "API ADDRESS":"2700 E Broad St, Mansfield, TX 76063",
    "COUNTY":"TARRANT",
    "PHONE":6822426000,
    "BEDS":12
    }
  },
  {
    "type": "Feature",
    "geometry": {
       "type": "Point",
       "coordinates":  [ -96.981889,32.469092 ]
    },
    "properties": {
    "NAME":"METHODIST MIDLOTHIAN MEDICAL CENTER",
    "ADDRESS":"1201 EAST US HIGHWAY 287",
    "CITY":"MIDLOTHIAN",
    "STATE":"TX",
    "ZIP":76065,
    "API ADDRESS":"1201 E US Highway 287, Midlothian, TX 76065",
    "COUNTY":"ELLIS",
    "PHONE":4698462000,
    "BEDS":2
    }
  },
  {
    "type": "Feature",
    "geometry": {
       "type": "Point",
       "coordinates":  [ -96.69137,32.979315 ]
    },
    "properties": {
    "NAME":"METHODIST RICHARDSON MEDICAL CENTER",
    "ADDRESS":"2831 E PRES GEORGE BUSH HWY",
    "CITY":"RICHARDSON",
    "STATE":"TX",
    "ZIP":75082,
    "API ADDRESS":"Richardson, TX 75082",
    "COUNTY":"COLLIN",
    "PHONE":4692042000,
    "BEDS":27
    }
  },
  {
    "type": "Feature",
    "geometry": {
       "type": "Point",
       "coordinates":  [ -96.726424,32.974164 ]
    },
    "properties": {
    "NAME":"METHODIST RICHARDSON MEDICAL CENTER CAMPUS FOR CONTINUING CARE",
    "ADDRESS":"401 W CAMPBELL ROAD",
    "CITY":"RICHARDSON",
    "STATE":"TX",
    "ZIP":75080,
    "API ADDRESS":"401 W Campbell Rd, Richardson, TX 75080",
    "COUNTY":"DALLAS",
    "PHONE":4692042000,
    "BEDS":15
    }
  },
  {
    "type": "Feature",
    "geometry": {
       "type": "Point",
       "coordinates":  [ -98.491008,29.441133 ]
    },
    "properties": {
    "NAME":"METROPOLITAN METHODIST HOSPITAL",
    "ADDRESS":"1310 MCCULLOUGH AVENUE",
    "CITY":"SAN ANTONIO",
    "STATE":"TX",
    "ZIP":78212,
    "API ADDRESS":"1310 McCullough Ave, San Antonio, TX 78212",
    "COUNTY":"BEXAR",
    "PHONE":2107572200,
    "BEDS":48
    }
  },
  {
    "type": "Feature",
    "geometry": {
       "type": "Point",
       "coordinates":  [ -102.100201,31.997566 ]
    },
    "properties": {
    "NAME":"MIDLAND MEMORIAL HOSPITAL",
    "ADDRESS":"400 ROSALIND REDFERN GROVER PKWY",
    "CITY":"MIDLAND",
    "STATE":"TX",
    "ZIP":79701,
    "API ADDRESS":"400 Rosalind Redfern Grover Pkwy, Midland, TX 79701",
    "COUNTY":"MIDLAND",
    "PHONE":4322211111,
    "BEDS":30
    }
  },
  {
    "type": "Feature",
    "geometry": {
       "type": "Point",
       "coordinates":  [ -98.313817,26.196411 ]
    },
    "properties": {
    "NAME":"MISSION REGIONAL MEDICAL CENTER",
    "ADDRESS":"900 SOUTH BRYAN ROAD",
    "CITY":"MISSION",
    "STATE":"TX",
    "ZIP":78572,
    "API ADDRESS":"900 S Bryan Rd, Mission, TX 78572",
    "COUNTY":"HIDALGO",
    "PHONE":9563239103,
    "BEDS":25
    }
  },
  {
    "type": "Feature",
    "geometry": {
       "type": "Point",
       "coordinates":  [ -98.43804,29.344319 ]
    },
    "properties": {
    "NAME":"MISSION TRAIL BAPTIST HOSPITAL",
    "ADDRESS":"3333 RESEARCH PLAZA",
    "CITY":"SAN ANTONIO",
    "STATE":"TX",
    "ZIP":78235,
    "API ADDRESS":"3333 Research Plz, San Antonio, TX 78235",
    "COUNTY":"BEXAR",
    "PHONE":2102973600,
    "BEDS":2
    }
  },
  {
    "type": "Feature",
    "geometry": {
       "type": "Point",
       "coordinates":  [ -94.653926,31.653211 ]
    },
    "properties": {
    "NAME":"NACOGDOCHES MEDICAL CENTER",
    "ADDRESS":"4920 N E STALLINGS DRIVE",
    "CITY":"NACOGDOCHES",
    "STATE":"TX",
    "ZIP":75965,
    "API ADDRESS":"4920 NE Stallings Dr, Nacogdoches, TX 75965",
    "COUNTY":"NACOGDOCHES",
    "PHONE":9365699481,
    "BEDS":12
    }
  },
  {
    "type": "Feature",
    "geometry": {
       "type": "Point",
       "coordinates":  [ -94.648719,31.612936 ]
    },
    "properties": {
    "NAME":"NACOGDOCHES MEMORIAL HOSPITAL",
    "ADDRESS":"1204 NORTH MOUND STREET",
    "CITY":"NACOGDOCHES",
    "STATE":"TX",
    "ZIP":75961,
    "API ADDRESS":"1204 N Mound St, Nacogdoches, TX 75961",
    "COUNTY":"NACOGDOCHES",
    "PHONE":9365644611,
    "BEDS":22
    }
  },
  {
    "type": "Feature",
    "geometry": {
       "type": "Point",
       "coordinates":  [ -97.738627,30.376097 ]
    },
    "properties": {
    "NAME":"NORTH AUSTIN MEDICAL CENTER",
    "ADDRESS":"12221 MOPAC EXPRESSWAY NORTH",
    "CITY":"AUSTIN",
    "STATE":"TX",
    "ZIP":78758,
    "API ADDRESS":"N Mo-Pac Expy, Austin, TX 78759",
    "COUNTY":"TRAVIS",
    "PHONE":5129012529,
    "BEDS":38
    }
  },
  {
    "type": "Feature",
    "geometry": {
       "type": "Point",
       "coordinates":  [ -98.491862,29.620513 ]
    },
    "properties": {
    "NAME":"NORTH CENTRAL BAPTIST HOSPITAL",
    "ADDRESS":"520 MADISON OAK",
    "CITY":"SAN ANTONIO",
    "STATE":"TX",
    "ZIP":78258,
    "API ADDRESS":"520 Madison Oak Dr, San Antonio, TX 78258",
    "COUNTY":"BEXAR",
    "PHONE":2102974600,
    "BEDS":54
    }
  },
  {
    "type": "Feature",
    "geometry": {
       "type": "Point",
       "coordinates":  [ -97.162089,33.641354 ]
    },
    "properties": {
    "NAME":"NORTH TEXAS MEDICAL CENTER",
    "ADDRESS":"1900 HOSPITAL BOULEVARD",
    "CITY":"GAINESVILLE",
    "STATE":"TX",
    "ZIP":76240,
    "API ADDRESS":"1900 Hospital Blvd, Gainesville, TX 76240",
    "COUNTY":"COOKE",
    "PHONE":9406651751,
    "BEDS":8
    }
  },
  {
    "type": "Feature",
    "geometry": {
       "type": "Point",
       "coordinates":  [ -101.920803,35.199823 ]
    },
    "properties": {
    "NAME":"NORTHWEST TEXAS HOSPITAL",
    "ADDRESS":"1501 SOUTH COULTER STREET",
    "CITY":"AMARILLO",
    "STATE":"TX",
    "ZIP":79106,
    "API ADDRESS":"1501 S Coulter St, Amarillo, TX 79106",
    "COUNTY":"POTTER",
    "PHONE":8063541000,
    "BEDS":24
    }
  },
  {
    "type": "Feature",
    "geometry": {
       "type": "Point",
       "coordinates":  [ -95.713908,29.55578 ]
    },
    "properties": {
    "NAME":"OAKBEND MEDICAL CENTER",
    "ADDRESS":"22003 SOUTHWEST FREEWAY",
    "CITY":"RICHMOND",
    "STATE":"TX",
    "ZIP":77469,
    "API ADDRESS":"22003 Southwest Fwy, Richmond, TX 77469",
    "COUNTY":"FORT BEND",
    "PHONE":2813412000,
    "BEDS":20
    }
  },
  {
    "type": "Feature",
    "geometry": {
       "type": "Point",
       "coordinates":  [ -100.798743,36.370026 ]
    },
    "properties": {
    "NAME":"OCHILTREE GENERAL HOSPITAL",
    "ADDRESS":"3101 GARRETT DRIVE",
    "CITY":"PERRYTON",
    "STATE":"TX",
    "ZIP":79070,
    "API ADDRESS":"3101 Garrett Dr, Perryton, TX 79070",
    "COUNTY":"OCHILTREE",
    "PHONE":8064353606,
    "BEDS":3
    }
  },
  {
    "type": "Feature",
    "geometry": {
       "type": "Point",
       "coordinates":  [ -102.365556,31.851086 ]
    },
    "properties": {
    "NAME":"ODESSA REGIONAL MEDICAL CENTER",
    "ADDRESS":"520 EAST SIXTH STREET",
    "CITY":"ODESSA",
    "STATE":"TX",
    "ZIP":79761,
    "API ADDRESS":"520 E 6th St, Odessa, TX 79761",
    "COUNTY":"ECTOR",
    "PHONE":4325828000,
    "BEDS":51
    }
  },
  {
    "type": "Feature",
    "geometry": {
       "type": "Point",
       "coordinates":  [ -95.627274,31.732762 ]
    },
    "properties": {
    "NAME":"PALESTINE REGIONAL MEDICAL CENTER",
    "ADDRESS":"2900 SOUTH LOOP 256",
    "CITY":"PALESTINE",
    "STATE":"TX",
    "ZIP":75801,
    "API ADDRESS":"2900 S Loop 256, Palestine, TX 75801",
    "COUNTY":"ANDERSON",
    "PHONE":9037311184,
    "BEDS":2
    }
  },
  {
    "type": "Feature",
    "geometry": {
       "type": "Point",
       "coordinates":  [ -95.547096,33.688124 ]
    },
    "properties": {
    "NAME":"PARIS REGIONAL MEDICAL CENTER NORTH CAMPUS",
    "ADDRESS":"865 DESHONG DRIVE",
    "CITY":"PARIS",
    "STATE":"TX",
    "ZIP":75460,
    "API ADDRESS":"865 Deshong Dr, Paris, TX 75460",
    "COUNTY":"LAMAR",
    "PHONE":9037371111,
    "BEDS":14
    }
  },
  {
    "type": "Feature",
    "geometry": {
       "type": "Point",
       "coordinates":  [ -96.837839,32.811035 ]
    },
    "properties": {
    "NAME":"PARKLAND MEMORIAL HOSPITAL",
    "ADDRESS":"5200 - 5201 HARRY HINES BOULEVARD",
    "CITY":"DALLAS",
    "STATE":"TX",
    "ZIP":75235,
    "API ADDRESS":"5201 Harry Hines Blvd, Dallas, TX 75235",
    "COUNTY":"DALLAS",
    "PHONE":2145900356,
    "BEDS":108
    }
  },
  {
    "type": "Feature",
    "geometry": {
       "type": "Point",
       "coordinates":  [ -99.152235,30.043795 ]
    },
    "properties": {
    "NAME":"PETERSON REGIONAL MEDICAL CENTER",
    "ADDRESS":"551 HILL COUNTRY DRIVE",
    "CITY":"KERRVILLE",
    "STATE":"TX",
    "ZIP":78028,
    "API ADDRESS":"551 Hill Country Dr S, Kerrville, TX 78028",
    "COUNTY":"KERR",
    "PHONE":8308964200,
    "BEDS":10
    }
  },
  {
    "type": "Feature",
    "geometry": {
       "type": "Point",
       "coordinates":  [ -96.345532,29.587677 ]
    },
    "properties": {
    "NAME":"RICE MEDICAL CENTER",
    "ADDRESS":"600 SOUTH AUSTIN ROAD",
    "CITY":"EAGLE LAKE",
    "STATE":"TX",
    "ZIP":77434,
    "API ADDRESS":"600 S Austin Rd, Eagle Lake, TX 77434",
    "COUNTY":"COLORADO",
    "PHONE":9792345571,
    "BEDS":1
    }
  },
  {
    "type": "Feature",
    "geometry": {
       "type": "Point",
       "coordinates":  [ -98.222486,26.186287 ]
    },
    "properties": {
    "NAME":"RIO GRANDE REGIONAL HOSPITAL",
    "ADDRESS":"101 E RIDGE ROAD",
    "CITY":"MCALLEN",
    "STATE":"TX",
    "ZIP":78503,
    "API ADDRESS":"101 E Ridge Rd, McAllen, TX 78503",
    "COUNTY":"HIDALGO",
    "PHONE":9566326000,
    "BEDS":56
    }
  },
  {
    "type": "Feature",
    "geometry": {
       "type": "Point",
       "coordinates":  [ -100.397509,32.453553 ]
    },
    "properties": {
    "NAME":"ROLLING PLAINS MEMORIAL HOSPITAL",
    "ADDRESS":"200 EAST ARIZONA",
    "CITY":"SWEETWATER",
    "STATE":"TX",
    "ZIP":79556,
    "API ADDRESS":"200 E Arizona Ave, Sweetwater, TX 79556",
    "COUNTY":"NOLAN",
    "PHONE":3252351701,
    "BEDS":2
    }
  },
  {
    "type": "Feature",
    "geometry": {
       "type": "Point",
       "coordinates":  [ -97.713493,30.510718 ]
    },
    "properties": {
    "NAME":"ROUND ROCK MEDICAL CENTER",
    "ADDRESS":"2400 ROUND ROCK AVENUE",
    "CITY":"ROUND ROCK",
    "STATE":"TX",
    "ZIP":78681,
    "API ADDRESS":"2400 Round Rock Ave, Round Rock, TX 78681",
    "COUNTY":"WILLIAMSON",
    "PHONE":5123411000,
    "BEDS":36
    }
  },
  {
    "type": "Feature",
    "geometry": {
       "type": "Point",
       "coordinates":  [ -97.682833,31.072602 ]
    },
    "properties": {
    "NAME":"SETON MEDICAL CENTER HARKER HEIGHTS",
    "ADDRESS":"850 WEST CENTRAL TEXAS EXPRESSWAY",
    "CITY":"HARKER HEIGHTS",
    "STATE":"TX",
    "ZIP":76548,
    "API ADDRESS":"850 W Central Texas Expy, Harker Heights, TX 76548",
    "COUNTY":"BELL",
    "PHONE":2546900900,
    "BEDS":10
    }
  },
  {
    "type": "Feature",
    "geometry": {
       "type": "Point",
       "coordinates":  [ -99.247398,33.592128 ]
    },
    "properties": {
    "NAME":"SEYMOUR HOSPITAL",
    "ADDRESS":"200 STADIUM DRIVE",
    "CITY":"SEYMOUR",
    "STATE":"TX",
    "ZIP":76380,
    "API ADDRESS":"200 Stadium Dr, Seymour, TX 76380",
    "COUNTY":"BAYLOR",
    "PHONE":9408895572,
    "BEDS":4
    }
  },
  {
    "type": "Feature",
    "geometry": {
       "type": "Point",
       "coordinates":  [ -100.434641,31.465082 ]
    },
    "properties": {
    "NAME":"SHANNON MEDICAL CENTER",
    "ADDRESS":"120 E HARRIS AVE",
    "CITY":"SAN ANGELO",
    "STATE":"TX",
    "ZIP":76903,
    "API ADDRESS":"120 E Harris Ave, San Angelo, TX 76903",
    "COUNTY":"TOM GREEN",
    "PHONE":3256536741,
    "BEDS":12
    }
  },
  {
    "type": "Feature",
    "geometry": {
       "type": "Point",
       "coordinates":  [ -98.181844,26.261293 ]
    },
    "properties": {
    "NAME":"SOUTH TEXAS HEALTH SYSTEM EDINBURG",
    "ADDRESS":"1102 WEST TRENTON ROAD",
    "CITY":"EDINBURG",
    "STATE":"TX",
    "ZIP":78539,
    "API ADDRESS":"1102 W Trenton Rd, Edinburg, TX 78539",
    "COUNTY":"HIDALGO",
    "PHONE":9563886000,
    "BEDS":13
    }
  },
  {
    "type": "Feature",
    "geometry": {
       "type": "Point",
       "coordinates":  [ -97.726745,30.290681 ]
    },
    "properties": {
    "NAME":"ST DAVIDS MEDICAL CENTER",
    "ADDRESS":"919 E 32ND STREET",
    "CITY":"AUSTIN",
    "STATE":"TX",
    "ZIP":78705,
    "API ADDRESS":"919 E 32nd St, Austin, TX 78705",
    "COUNTY":"TRAVIS",
    "PHONE":5124767111,
    "BEDS":60
    }
  },
  {
    "type": "Feature",
    "geometry": {
       "type": "Point",
       "coordinates":  [ -97.773479,30.227468 ]
    },
    "properties": {
    "NAME":"ST DAVIDS SOUTH AUSTIN MEDICAL CENTER",
    "ADDRESS":"901 W BEN WHITE BLVD",
    "CITY":"AUSTIN",
    "STATE":"TX",
    "ZIP":78704,
    "API ADDRESS":"901 W Ben White Blvd, Austin, TX 78704",
    "COUNTY":"TRAVIS",
    "PHONE":5124472211,
    "BEDS":9
    }
  },
  {
    "type": "Feature",
    "geometry": {
       "type": "Point",
       "coordinates":  [ -96.346726,30.655929 ]
    },
    "properties": {
    "NAME":"ST JOSEPH REGIONAL HEALTH CENTER",
    "ADDRESS":"2801 FRANCISCAN DRIVE",
    "CITY":"BRYAN",
    "STATE":"TX",
    "ZIP":77802,
    "API ADDRESS":"2801 Franciscan Dr, Bryan, TX 77802",
    "COUNTY":"BRAZOS",
    "PHONE":9797763777,
    "BEDS":33
    }
  },
  {
    "type": "Feature",
    "geometry": {
       "type": "Point",
       "coordinates":  [ -98.574718,29.512373 ]
    },
    "properties": {
    "NAME":"ST LUKES BAPTIST HOSPITAL",
    "ADDRESS":"7930 FLOYD CURL DRIVE",
    "CITY":"SAN ANTONIO",
    "STATE":"TX",
    "ZIP":78229,
    "API ADDRESS":"7930 Floyd Curl Dr, San Antonio, TX 78229",
    "COUNTY":"BEXAR",
    "PHONE":2102975600,
    "BEDS":26
    }
  },
  {
    "type": "Feature",
    "geometry": {
       "type": "Point",
       "coordinates":  [ -95.620268,29.603754 ]
    },
    "properties": {
    "NAME":"ST LUKES SUGAR LAND HOSPITAL",
    "ADDRESS":"1317 LAKE POINTE PARKWAY",
    "CITY":"SUGAR LAND",
    "STATE":"TX",
    "ZIP":77478,
    "API ADDRESS":"1317 Lake Pointe Pkwy, Sugar Land, TX 77478",
    "COUNTY":"FORT BEND",
    "PHONE":2816377000,
    "BEDS":1
    }
  },
  {
    "type": "Feature",
    "geometry": {
       "type": "Point",
       "coordinates":  [ -95.458625,30.205221 ]
    },
    "properties": {
    "NAME":"ST LUKES THE WOODLANDS HOSPITAL",
    "ADDRESS":"17200 ST LUKES WAY",
    "CITY":"THE WOODLANDS",
    "STATE":"TX",
    "ZIP":77384,
    "API ADDRESS":"17200 St Lukes Way, Conroe, TX 77384",
    "COUNTY":"MONTGOMERY",
    "PHONE":9362662000,
    "BEDS":10
    }
  },
  {
    "type": "Feature",
    "geometry": {
       "type": "Point",
       "coordinates":  [ -95.400365,29.708155 ]
    },
    "properties": {
    "NAME":"TEXAS CHILDRENS HOSPITAL",
    "ADDRESS":"6621 FANNIN STREET",
    "CITY":"HOUSTON",
    "STATE":"TX",
    "ZIP":77030,
    "API ADDRESS":"6621 Fannin St, Houston, TX 77030",
    "COUNTY":"HARRIS",
    "PHONE":8328241000,
    "BEDS":48
    }
  },
  {
    "type": "Feature",
    "geometry": {
       "type": "Point",
       "coordinates":  [ -97.114841,32.751423 ]
    },
    "properties": {
    "NAME":"TEXAS HEALTH ARLINGTON MEMORIAL HOSPITAL",
    "ADDRESS":"800 W RANDOL MILL RD",
    "CITY":"ARLINGTON",
    "STATE":"TX",
    "ZIP":76012,
    "API ADDRESS":"800 W Randol Mill Rd, Arlington, TX 76012",
    "COUNTY":"TARRANT",
    "PHONE":8179606535,
    "BEDS":18
    }
  },
  {
    "type": "Feature",
    "geometry": {
       "type": "Point",
       "coordinates":  [ -97.314045,32.897857 ]
    },
    "properties": {
    "NAME":"TEXAS HEALTH HARRIS METHODIST HOSPITAL ALLIANCE",
    "ADDRESS":"10864 TEXAS HEALTH TRL",
    "CITY":"FORT WORTH",
    "STATE":"TX",
    "ZIP":76244,
    "API ADDRESS":"10864 Texas Health Trl, Fort Worth, TX 76244",
    "COUNTY":"TARRANT",
    "PHONE":6822122000,
    "BEDS":34
    }
  },
  {
    "type": "Feature",
    "geometry": {
       "type": "Point",
       "coordinates":  [ -97.33891,32.736811 ]
    },
    "properties": {
    "NAME":"TEXAS HEALTH HARRIS METHODIST HOSPITAL FORT WORTH",
    "ADDRESS":"1301 PENNSYLVANIA AVE",
    "CITY":"FORT WORTH",
    "STATE":"TX",
    "ZIP":76104,
    "API ADDRESS":"1301 Pennsylvania Ave, Fort Worth, TX 76104",
    "COUNTY":"TARRANT",
    "PHONE":8172502000,
    "BEDS":29
    }
  },
  {
    "type": "Feature",
    "geometry": {
       "type": "Point",
       "coordinates":  [ -97.123334,32.835072 ]
    },
    "properties": {
    "NAME":"TEXAS HEALTH HARRIS METHODIST HOSPITAL HURST-EULESS-BEDFORD",
    "ADDRESS":"1600 HOSPITAL PKWY",
    "CITY":"BEDFORD",
    "STATE":"TX",
    "ZIP":76022,
    "API ADDRESS":"1600 Hospital Pkwy, Bedford, TX 76022",
    "COUNTY":"TARRANT",
    "PHONE":8178484602,
    "BEDS":30
    }
  },
  {
    "type": "Feature",
    "geometry": {
       "type": "Point",
       "coordinates":  [ -97.420746,32.657808 ]
    },
    "properties": {
    "NAME":"TEXAS HEALTH HARRIS METHODIST HOSPITAL SOUTHWEST FORT WORTH",
    "ADDRESS":"6100 HARRIS PKWY",
    "CITY":"FORT WORTH",
    "STATE":"TX",
    "ZIP":76132,
    "API ADDRESS":"6100 Harris Pkwy, Fort Worth, TX 76132",
    "COUNTY":"TARRANT",
    "PHONE":8174335000,
    "BEDS":26
    }
  },
  {
    "type": "Feature",
    "geometry": {
       "type": "Point",
       "coordinates":  [ -96.837082,33.181516 ]
    },
    "properties": {
    "NAME":"TEXAS HEALTH HOSPITAL FRISCO",
    "ADDRESS":"12400 DALLAS PKWY",
    "CITY":"FRISCO",
    "STATE":"TX",
    "ZIP":75033,
    "API ADDRESS":"12400 Dallas Pkwy, Frisco, TX 75033",
    "COUNTY":"COLLIN",
    "PHONE":4694952000,
    "BEDS":22
    }
  },
  {
    "type": "Feature",
    "geometry": {
       "type": "Point",
       "coordinates":  [ -97.099405,32.537001 ]
    },
    "properties": {
    "NAME":"TEXAS HEALTH HOSPITAL MANSFIELD",
    "ADDRESS":"2300 LONE STAR ROAD",
    "CITY":"MANSFIELD",
    "STATE":"TX",
    "ZIP":76063,
    "API ADDRESS":"2300 Lone Star Rd, Mansfield, TX 76063",
    "COUNTY":"JOHNSON",
    "PHONE":6823415000,
    "BEDS":3
    }
  },
  {
    "type": "Feature",
    "geometry": {
       "type": "Point",
       "coordinates":  [ -96.465807,32.884889 ]
    },
    "properties": {
    "NAME":"TEXAS HEALTH HOSPITAL ROCKWALL",
    "ADDRESS":"3150 HORIZON ROAD",
    "CITY":"ROCKWALL",
    "STATE":"TX",
    "ZIP":75032,
    "API ADDRESS":"3150 Horizon Rd, Rockwall, TX 75032",
    "COUNTY":"ROCKWALL",
    "PHONE":4696981000,
    "BEDS":10
    }
  },
  {
    "type": "Feature",
    "geometry": {
       "type": "Point",
       "coordinates":  [ -97.316183,32.586584 ]
    },
    "properties": {
    "NAME":"TEXAS HEALTH HUGULEY HOSPITAL",
    "ADDRESS":"11801 SOUTH FREEWAY",
    "CITY":"BURLESON",
    "STATE":"TX",
    "ZIP":76028,
    "API ADDRESS":"11801 South Fwy, Burleson, TX 76028",
    "COUNTY":"TARRANT",
    "PHONE":8172939110,
    "BEDS":18
    }
  },
  {
    "type": "Feature",
    "geometry": {
       "type": "Point",
       "coordinates":  [ -96.673545,33.116231 ]
    },
    "properties": {
    "NAME":"TEXAS HEALTH PRESBYTERIAN HOSPITAL ALLEN",
    "ADDRESS":"1105 CENTRAL EXPY N",
    "CITY":"ALLEN",
    "STATE":"TX",
    "ZIP":75013,
    "API ADDRESS":"1105 N Central Expy, Allen, TX 75013",
    "COUNTY":"COLLIN",
    "PHONE":9727471000,
    "BEDS":5
    }
  },
  {
    "type": "Feature",
    "geometry": {
       "type": "Point",
       "coordinates":  [ -97.099445,33.17919 ]
    },
    "properties": {
    "NAME":"TEXAS HEALTH PRESBYTERIAN HOSPITAL DENTON",
    "ADDRESS":"3000 I 35 NORTH",
    "CITY":"DENTON",
    "STATE":"TX",
    "ZIP":76201,
    "API ADDRESS":"3008 S I-35 E, Denton, TX 76210",
    "COUNTY":"DENTON",
    "PHONE":9408987191,
    "BEDS":26
    }
  },
  {
    "type": "Feature",
    "geometry": {
       "type": "Point",
       "coordinates":  [ -97.06763,33.045566 ]
    },
    "properties": {
    "NAME":"TEXAS HEALTH PRESBYTERIAN HOSPITAL FLOWER MOUND",
    "ADDRESS":"4400 LONG PRAIRIE ROAD",
    "CITY":"FLOWER MOUND",
    "STATE":"TX",
    "ZIP":75028,
    "API ADDRESS":"4400 Long Prairie Rd, Flower Mound, TX 75028",
    "COUNTY":"DENTON",
    "PHONE":4693227000,
    "BEDS":17
    }
  },
  {
    "type": "Feature",
    "geometry": {
       "type": "Point",
       "coordinates":  [ -96.838405,33.044047 ]
    },
    "properties": {
    "NAME":"TEXAS HEALTH PRESBYTERIAN HOSPITAL PLANO",
    "ADDRESS":"6200 W PARKER RD",
    "CITY":"PLANO",
    "STATE":"TX",
    "ZIP":75093,
    "API ADDRESS":"6200 W Parker Rd, Plano, TX 75093",
    "COUNTY":"COLLIN",
    "PHONE":9729818000,
    "BEDS":66
    }
  },
  {
    "type": "Feature",
    "geometry": {
       "type": "Point",
       "coordinates":  [ -96.584679,33.710009 ]
    },
    "properties": {
    "NAME":"TEXOMA MEDICAL CENTER",
    "ADDRESS":"5016 SOUTH US HIGHWAY 75",
    "CITY":"DENISON",
    "STATE":"TX",
    "ZIP":75020,
    "API ADDRESS":"5016 S US Highway 75, Denison, TX 75020",
    "COUNTY":"GRAYSON",
    "PHONE":9034164000,
    "BEDS":35
    }
  },
  {
    "type": "Feature",
    "geometry": {
       "type": "Point",
       "coordinates":  [ -106.264899,31.790579 ]
    },
    "properties": {
    "NAME":"THE HOSPITALS OF PROVIDENCE EAST CAMPUS",
    "ADDRESS":"3280 JOE BATTLE BOULEVARD",
    "CITY":"EL PASO",
    "STATE":"TX",
    "ZIP":79938,
    "API ADDRESS":"3280 Joe Battle Blvd, El Paso, TX 79938",
    "COUNTY":"EL PASO",
    "PHONE":9158322000,
    "BEDS":14
    }
  },
  {
    "type": "Feature",
    "geometry": {
       "type": "Point",
       "coordinates":  [ -106.499726,31.771502 ]
    },
    "properties": {
    "NAME":"THE HOSPITALS OF PROVIDENCE MEMORIAL CAMPUS",
    "ADDRESS":"2001 NORTH OREGON STREET",
    "CITY":"EL PASO",
    "STATE":"TX",
    "ZIP":79902,
    "API ADDRESS":"2001 N Oregon St, El Paso, TX 79902",
    "COUNTY":"EL PASO",
    "PHONE":9155776011,
    "BEDS":16
    }
  },
  {
    "type": "Feature",
    "geometry": {
       "type": "Point",
       "coordinates":  [ -106.542594,31.892468 ]
    },
    "properties": {
    "NAME":"THE HOSPITALS OF PROVIDENCE TRANSMOUNTAIN CAMPUS",
    "ADDRESS":"2000 TRANSMOUNTAIN RD",
    "CITY":"EL PASO",
    "STATE":"TX",
    "ZIP":79911,
    "API ADDRESS":"El Paso, TX 79911",
    "COUNTY":"EL PASO",
    "PHONE":9158778136,
    "BEDS":15
    }
  },
  {
    "type": "Feature",
    "geometry": {
       "type": "Point",
       "coordinates":  [ -95.402355,29.693102 ]
    },
    "properties": {
    "NAME":"THE WOMANS HOSPITAL OF TEXAS",
    "ADDRESS":"7600 FANNIN STREET",
    "CITY":"HOUSTON",
    "STATE":"TX",
    "ZIP":77054,
    "API ADDRESS":"7600 Fannin St, Houston, TX 77054",
    "COUNTY":"HARRIS",
    "PHONE":7137901234,
    "BEDS":144
    }
  },
  {
    "type": "Feature",
    "geometry": {
       "type": "Point",
       "coordinates":  [ -94.971816,33.175741 ]
    },
    "properties": {
    "NAME":"TITUS REGIONAL MEDICAL CENTER",
    "ADDRESS":"2001 NORTH JEFFERSON",
    "CITY":"MOUNT PLEASANT",
    "STATE":"TX",
    "ZIP":75455,
    "API ADDRESS":"2001 N Jefferson Ave, Mount Pleasant, TX 75455",
    "COUNTY":"TITUS",
    "PHONE":9035776000,
    "BEDS":13
    }
  },
  {
    "type": "Feature",
    "geometry": {
       "type": "Point",
       "coordinates":  [ -98.500328,33.902797 ]
    },
    "properties": {
    "NAME":"UNITED REGIONAL HEALTH CARE SYSTEM",
    "ADDRESS":"1600 11TH STREET",
    "CITY":"WICHITA FALLS",
    "STATE":"TX",
    "ZIP":76301,
    "API ADDRESS":"1600 11th St, Wichita Falls, TX 76301",
    "COUNTY":"WICHITA",
    "PHONE":9407648313,
    "BEDS":24
    }
  },
  {
    "type": "Feature",
    "geometry": {
       "type": "Point",
       "coordinates":  [ -98.578904,29.508584 ]
    },
    "properties": {
    "NAME":"UNIVERSITY HOSPITAL",
    "ADDRESS":"4502 MEDICAL DRIVE",
    "CITY":"SAN ANTONIO",
    "STATE":"TX",
    "ZIP":78229,
    "API ADDRESS":"4502 Medical Dr, San Antonio, TX 78229",
    "COUNTY":"BEXAR",
    "PHONE":2103584000,
    "BEDS":24
    }
  },
  {
    "type": "Feature",
    "geometry": {
       "type": "Point",
       "coordinates":  [ -101.892086,33.588252 ]
    },
    "properties": {
    "NAME":"UNIVERSITY MEDICAL CENTER",
    "ADDRESS":"602 INDIANA AVENUE",
    "CITY":"LUBBOCK",
    "STATE":"TX",
    "ZIP":79415,
    "API ADDRESS":"602 Indiana Ave, Lubbock, TX 79415",
    "COUNTY":"LUBBOCK",
    "PHONE":8067758200,
    "BEDS":34
    }
  },
  {
    "type": "Feature",
    "geometry": {
       "type": "Point",
       "coordinates":  [ -106.434012,31.771335 ]
    },
    "properties": {
    "NAME":"UNIVERSITY MEDICAL CENTER OF EL PASO",
    "ADDRESS":"4815 ALAMEDA AVENUE",
    "CITY":"EL PASO",
    "STATE":"TX",
    "ZIP":79905,
    "API ADDRESS":"4815 Alameda Ave, El Paso, TX 79905",
    "COUNTY":"EL PASO",
    "PHONE":9155441200,
    "BEDS":30
    }
  },
  {
    "type": "Feature",
    "geometry": {
       "type": "Point",
       "coordinates":  [ -95.843843,32.17114 ]
    },
    "properties": {
    "NAME":"UT HEALTH EAST TEXAS ATHENS HOSPITAL",
    "ADDRESS":"2000 SOUTH PALESTINE STREET",
    "CITY":"ATHENS",
    "STATE":"TX",
    "ZIP":75751,
    "API ADDRESS":"2000 S Palestine St, Athens, TX 75751",
    "COUNTY":"HENDERSON",
    "PHONE":9036761000,
    "BEDS":8
    }
  },
  {
    "type": "Feature",
    "geometry": {
       "type": "Point",
       "coordinates":  [ -95.291088,32.338206 ]
    },
    "properties": {
    "NAME":"UT HEALTH EAST TEXAS TYLER REGIONAL HOSPITAL",
    "ADDRESS":"1000 SOUTH BECKHAM AVENUE",
    "CITY":"TYLER",
    "STATE":"TX",
    "ZIP":75701,
    "API ADDRESS":"1000 S Beckham Ave, Tyler, TX 75701",
    "COUNTY":"SMITH",
    "PHONE":9035970351,
    "BEDS":3
    }
  },
  {
    "type": "Feature",
    "geometry": {
       "type": "Point",
       "coordinates":  [ -99.767805,29.214629 ]
    },
    "properties": {
    "NAME":"UVALDE MEMORIAL HOSPITAL",
    "ADDRESS":"1025 GARNER FIELD ROAD",
    "CITY":"UVALDE",
    "STATE":"TX",
    "ZIP":78801,
    "API ADDRESS":"1025 Garner Field Rd, Uvalde, TX 78801",
    "COUNTY":"UVALDE",
    "PHONE":8302786251,
    "BEDS":4
    }
  },
  {
    "type": "Feature",
    "geometry": {
       "type": "Point",
       "coordinates":  [ -97.497577,25.980037 ]
    },
    "properties": {
    "NAME":"VALLEY REGIONAL MEDICAL CENTER",
    "ADDRESS":"100A E ALTON GLOOR BLVD",
    "CITY":"BROWNSVILLE",
    "STATE":"TX",
    "ZIP":78526,
    "API ADDRESS":"100 E Alton Gloor Blvd, Brownsville, TX 78526",
    "COUNTY":"CAMERON",
    "PHONE":9563507000,
    "BEDS":33
    }
  },
  {
    "type": "Feature",
    "geometry": {
       "type": "Point",
       "coordinates":  [ -94.074189,33.412317 ]
    },
    "properties": {
    "NAME":"WADLEY REGIONAL MEDICAL CENTER",
    "ADDRESS":"1000 PINE",
    "CITY":"TEXARKANA",
    "STATE":"TX",
    "ZIP":75501,
    "API ADDRESS":"904 Texarkana Ave, Texarkana, TX 75501",
    "COUNTY":"BOWIE",
    "PHONE":9037988000,
    "BEDS":19
    }
  },
  {
    "type": "Feature",
    "geometry": {
       "type": "Point",
       "coordinates":  [ -96.704575,32.834389 ]
    },
    "properties": {
    "NAME":"WHITE ROCK MEDICAL CENTER",
    "ADDRESS":"9440 POPPY DRIVE",
    "CITY":"DALLAS",
    "STATE":"TX",
    "ZIP":75218,
    "API ADDRESS":"9440 Poppy Dr, Dallas, TX 75218",
    "COUNTY":"DALLAS",
    "PHONE":2143246100,
    "BEDS":15
    }
  },
  {
    "type": "Feature",
    "geometry": {
       "type": "Point",
       "coordinates":  [ -96.623877,33.637172 ]
    },
    "properties": {
    "NAME":"WILSON N JONES REGIONAL MEDICAL CENTER",
    "ADDRESS":"500 N HIGHLAND AVE",
    "CITY":"SHERMAN",
    "STATE":"TX",
    "ZIP":75092,
    "API ADDRESS":"500 N Highland Ave, Sherman, TX 75092",
    "COUNTY":"GRAYSON",
    "PHONE":9038704611,
    "BEDS":6
    }
  },
  {
    "type": "Feature",
    "geometry": {
       "type": "Point",
       "coordinates":  [ -98.202966,26.252768 ]
    },
    "properties": {
    "NAME":"WOMENS HOSPITAL AT RENAISSANCE",
    "ADDRESS":"5502 SOUTH MC COLL",
    "CITY":"EDINBURG",
    "STATE":"TX",
    "ZIP":78539,
    "API ADDRESS":"5502 S McColl Rd, Edinburg, TX 78539",
    "COUNTY":"HIDALGO",
    "PHONE":9563625601,
    "BEDS":48
    }
  },
  {
    "type": "Feature",
    "geometry": {
       "type": "Point",
       "coordinates":  [ -94.756536,31.329219 ]
    },
    "properties": {
    "NAME":"WOODLAND HEIGHTS MEDICAL CENTER",
    "ADDRESS":"505 SOUTH JOHN REDDITT DRIVE",
    "CITY":"LUFKIN",
    "STATE":"TX",
    "ZIP":75904,
    "API ADDRESS":"505 S John Redditt Dr, Lufkin, TX 75904",
    "COUNTY":"ANGELINA",
    "PHONE":9366378501,
    "BEDS":8
    }
  },
  {
    "type": "Feature",
    "geometry": {
       "type": "Point",
       "coordinates":  [ -102.836196,32.968908 ]
    },
    "properties": {
    "NAME":"YOAKUM COUNTY HOSPITAL",
    "ADDRESS":"412 MUSTANG AVENUE",
    "CITY":"DENVER CITY",
    "STATE":"TX",
    "ZIP":79323,
    "API ADDRESS":"412 Mustang Ave, Denver City, TX 79323",
    "COUNTY":"YOAKUM",
    "PHONE":8065922121,
    "BEDS":2
    }
  }
]
}