{
   "type": "FeatureCollection",
   "features": [
  {
    "type": "Feature",
    "geometry": {
       "type": "Point",
       "coordinates":  [ -94.11979,30.070357 ]
    },
    "properties": {
    "NAME":"BAPTIST HOSPITALS OF SOUTHEAST TEXAS",
    "ADDRESS":"3080 COLLEGE STREET",
    "CITY":"BEAUMONT",
    "STATE":"TX",
    "ZIP":77701,
    "API ADDRESS":"3080 College St, Beaumont, TX 77701",
    "COUNTY":"JEFFERSON",
    "PHONE":4092125000,
    "BEDS":17
    }
  },
  {
    "type": "Feature",
    "geometry": {
       "type": "Point",
       "coordinates":  [ -98.4923,29.433872 ]
    },
    "properties": {
    "NAME":"BAPTIST MEDICAL CENTER",
    "ADDRESS":"111 DALLAS STREET",
    "CITY":"SAN ANTONIO",
    "STATE":"TX",
    "ZIP":78205,
    "API ADDRESS":"111 Dallas St, San Antonio, TX 78205",
    "COUNTY":"BEXAR",
    "PHONE":2102977600,
    "BEDS":25
    }
  },
  {
    "type": "Feature",
    "geometry": {
       "type": "Point",
       "coordinates":  [ -97.374193,31.07269 ]
    },
    "properties": {
    "NAME":"BAYLOR SCOTT & WHITE MCLANE CHILDRENS MEDICAL CENTER",
    "ADDRESS":"1901 SW H K DODGEN LOOP",
    "CITY":"TEMPLE",
    "STATE":"TX",
    "ZIP":76502,
    "API ADDRESS":"1901 SW H K Dodgen Loop, Temple, TX 76502",
    "COUNTY":"BELL",
    "PHONE":2547718600,
    "BEDS":48
    }
  },
  {
    "type": "Feature",
    "geometry": {
       "type": "Point",
       "coordinates":  [ -97.157815,31.487525 ]
    },
    "properties": {
    "NAME":"BAYLOR SCOTT & WHITE MEDICAL CENTER - HILLCREST",
    "ADDRESS":"100 HILLCREST MEDICAL BLV",
    "CITY":"WACO",
    "STATE":"TX",
    "ZIP":76712,
    "API ADDRESS":"120 Hillcrest Medical Blvd, Waco, TX 76712",
    "COUNTY":"MCLENNAN",
    "PHONE":2542029414,
    "BEDS":6
    }
  },
  {
    "type": "Feature",
    "geometry": {
       "type": "Point",
       "coordinates":  [ -101.919999,35.196207 ]
    },
    "properties": {
    "NAME":"BSA HOSPITAL LLC",
    "ADDRESS":"1600 WALLACE BLVD",
    "CITY":"AMARILLO",
    "STATE":"TX",
    "ZIP":79106,
    "API ADDRESS":"1600 Wallace Blvd, Amarillo, TX 79106",
    "COUNTY":"POTTER",
    "PHONE":8062122000,
    "BEDS":18
    }
  },
  {
    "type": "Feature",
    "geometry": {
       "type": "Point",
       "coordinates":  [ -96.837745,32.808994 ]
    },
    "properties": {
    "NAME":"CHILDRENS MEDICAL CENTER OF DALLAS",
    "ADDRESS":"1935 MEDICAL DISTRICT DRIVE",
    "CITY":"DALLAS",
    "STATE":"TX",
    "ZIP":75235,
    "API ADDRESS":"1935 Medical District Dr, Dallas, TX 75235",
    "COUNTY":"DALLAS",
    "PHONE":2144568339,
    "BEDS":255
    }
  },
  {
    "type": "Feature",
    "geometry": {
       "type": "Point",
       "coordinates":  [ -98.497912,29.428136 ]
    },
    "properties": {
    "NAME":"CHRISTUS CHILDRENS",
    "ADDRESS":"333 NORTH SANTA ROSA STREET",
    "CITY":"SAN ANTONIO",
    "STATE":"TX",
    "ZIP":78207,
    "API ADDRESS":"333 N Santa Rosa St, San Antonio, TX 78207",
    "COUNTY":"BEXAR",
    "PHONE":2107042317,
    "BEDS":199
    }
  },
  {
    "type": "Feature",
    "geometry": {
       "type": "Point",
       "coordinates":  [ -94.730171,32.500863 ]
    },
    "properties": {
    "NAME":"CHRISTUS GOOD SHEPHERD MEDICAL CENTER - LONGVIEW",
    "ADDRESS":"700 E MARSHALL AVENUE",
    "CITY":"LONGVIEW",
    "STATE":"TX",
    "ZIP":75601,
    "API ADDRESS":"700 E Marshall Ave, Longview, TX 75601",
    "COUNTY":"GREGG",
    "PHONE":9033151811,
    "BEDS":19
    }
  },
  {
    "type": "Feature",
    "geometry": {
       "type": "Point",
       "coordinates":  [ -95.291902,32.342624 ]
    },
    "properties": {
    "NAME":"CHRISTUS MOTHER FRANCES HOSPITAL - TYLER",
    "ADDRESS":"800 EAST DAWSON",
    "CITY":"TYLER",
    "STATE":"TX",
    "ZIP":75701,
    "API ADDRESS":"800 E Dawson St, Tyler, TX 75701",
    "COUNTY":"SMITH",
    "PHONE":9035315400,
    "BEDS":21
    }
  },
  {
    "type": "Feature",
    "geometry": {
       "type": "Point",
       "coordinates":  [ -94.131292,30.086619 ]
    },
    "properties": {
    "NAME":"CHRISTUS SOUTHEAST TEXAS - ST ELIZABETH",
    "ADDRESS":"2830 CALDER ST",
    "CITY":"BEAUMONT",
    "STATE":"TX",
    "ZIP":77702,
    "API ADDRESS":"2830 Calder Ave, Beaumont, TX 77702",
    "COUNTY":"JEFFERSON",
    "PHONE":4092367107,
    "BEDS":16
    }
  },
  {
    "type": "Feature",
    "geometry": {
       "type": "Point",
       "coordinates":  [ -98.044822,27.764759 ]
    },
    "properties": {
    "NAME":"CHRISTUS SPOHN HOSPITAL ALICE",
    "ADDRESS":"2500 EAST MAIN STREET",
    "CITY":"ALICE",
    "STATE":"TX",
    "ZIP":78332,
    "API ADDRESS":"2500 E Main St, Alice, TX 78332",
    "COUNTY":"JIM WELLS",
    "PHONE":3616618015,
    "BEDS":24
    }
  },
  {
    "type": "Feature",
    "geometry": {
       "type": "Point",
       "coordinates":  [ -97.851487,27.491359 ]
    },
    "properties": {
    "NAME":"CHRISTUS SPOHN HOSPITAL KLEBERG",
    "ADDRESS":"1311 EAST GENERAL CAVAZOS BOULEVARD",
    "CITY":"KINGSVILLE",
    "STATE":"TX",
    "ZIP":78363,
    "API ADDRESS":"1311 E General Cavazos Blvd, Kingsville, TX 78363",
    "COUNTY":"KLEBERG",
    "PHONE":3615951661,
    "BEDS":16
    }
  },
  {
    "type": "Feature",
    "geometry": {
       "type": "Point",
       "coordinates":  [ -94.075579,33.464014 ]
    },
    "properties": {
    "NAME":"CHRISTUS ST MICHAEL HEALTH SYSTEM",
    "ADDRESS":"2600 ST MICHAEL DRIVE",
    "CITY":"TEXARKANA",
    "STATE":"TX",
    "ZIP":75503,
    "API ADDRESS":"2600 St Michael Dr, Texarkana, TX 75503",
    "COUNTY":"BOWIE",
    "PHONE":9036142211,
    "BEDS":15
    }
  },
  {
    "type": "Feature",
    "geometry": {
       "type": "Point",
       "coordinates":  [ -96.977678,28.81309 ]
    },
    "properties": {
    "NAME":"CITIZENS MEDICAL CENTER",
    "ADDRESS":"2701 HOSPITAL DRIVE",
    "CITY":"VICTORIA",
    "STATE":"TX",
    "ZIP":77901,
    "API ADDRESS":"2701 Hospital Dr, Victoria, TX 77901",
    "COUNTY":"VICTORIA",
    "PHONE":3615739181,
    "BEDS":28
    }
  },
  {
    "type": "Feature",
    "geometry": {
       "type": "Point",
       "coordinates":  [ -97.341846,32.736976 ]
    },
    "properties": {
    "NAME":"COOK CHILDRENS MEDICAL CENTER",
    "ADDRESS":"801 SEVENTH AVENUE",
    "CITY":"FORT WORTH",
    "STATE":"TX",
    "ZIP":76104,
    "API ADDRESS":"801 7th Ave, Fort Worth, TX 76104",
    "COUNTY":"TARRANT",
    "PHONE":6828854326,
    "BEDS":224
    }
  },
  {
    "type": "Feature",
    "geometry": {
       "type": "Point",
       "coordinates":  [ -101.900299,33.573954 ]
    },
    "properties": {
    "NAME":"COVENANT CHILDRENS HOSPITAL",
    "ADDRESS":"4015 22ND PLACE",
    "CITY":"LUBBOCK",
    "STATE":"TX",
    "ZIP":79410,
    "API ADDRESS":"4015 22nd Pl, Lubbock, TX 79410",
    "COUNTY":"LUBBOCK",
    "PHONE":8067257960,
    "BEDS":36
    }
  },
  {
    "type": "Feature",
    "geometry": {
       "type": "Point",
       "coordinates":  [ -97.706219,30.303505 ]
    },
    "properties": {
    "NAME":"DELL CHILDRENS MEDICAL CENTER",
    "ADDRESS":"4900 MUELLER BLVD",
    "CITY":"AUSTIN",
    "STATE":"TX",
    "ZIP":78723,
    "API ADDRESS":"4900 Mueller Blvd, Austin, TX 78723",
    "COUNTY":"TRAVIS",
    "PHONE":5123240101,
    "BEDS":112
    }
  },
  {
    "type": "Feature",
    "geometry": {
       "type": "Point",
       "coordinates":  [ -97.019618,28.854217 ]
    },
    "properties": {
    "NAME":"DETAR HEALTHCARE SYSTEM",
    "ADDRESS":"101 MEDICAL DRIVE",
    "CITY":"VICTORIA",
    "STATE":"TX",
    "ZIP":77904,
    "API ADDRESS":"101 Medical Dr, Victoria, TX 77904",
    "COUNTY":"VICTORIA",
    "PHONE":3615736100,
    "BEDS":26
    }
  },
  {
    "type": "Feature",
    "geometry": {
       "type": "Point",
       "coordinates":  [ -98.204995,26.252805 ]
    },
    "properties": {
    "NAME":"DOCTORS HOSPITAL AT RENAISSANCE",
    "ADDRESS":"5501 SOUTH MCCOLL",
    "CITY":"EDINBURG",
    "STATE":"TX",
    "ZIP":78539,
    "API ADDRESS":"5501 S McColl Rd, Edinburg, TX 78539",
    "COUNTY":"HIDALGO",
    "PHONE":9563627360,
    "BEDS":25
    }
  },
  {
    "type": "Feature",
    "geometry": {
       "type": "Point",
       "coordinates":  [ -97.384405,27.74814 ]
    },
    "properties": {
    "NAME":"DRISCOLL CHILDRENS HOSPITAL",
    "ADDRESS":"3533 SOUTH ALAMEDA",
    "CITY":"CORPUS CHRISTI",
    "STATE":"TX",
    "ZIP":78411,
    "API ADDRESS":"3533 S Alameda St, Corpus Christi, TX 78411",
    "COUNTY":"NUECES",
    "PHONE":3616945021,
    "BEDS":102
    }
  },
  {
    "type": "Feature",
    "geometry": {
       "type": "Point",
       "coordinates":  [ -106.433843,31.771259 ]
    },
    "properties": {
    "NAME":"EL PASO CHILDRENS HOSPITAL",
    "ADDRESS":"4845 ALAMEDA AVE",
    "CITY":"EL PASO",
    "STATE":"TX",
    "ZIP":79905,
    "API ADDRESS":"4845 Alameda Ave, El Paso, TX 79905",
    "COUNTY":"EL PASO",
    "PHONE":9152428600,
    "BEDS":50
    }
  },
  {
    "type": "Feature",
    "geometry": {
       "type": "Point",
       "coordinates":  [ -95.126216,29.539812 ]
    },
    "properties": {
    "NAME":"HCA HOUSTON HEALTHCARE CLEAR LAKE",
    "ADDRESS":"500 MEDICAL CENTER BLVD",
    "CITY":"WEBSTER",
    "STATE":"TX",
    "ZIP":77598,
    "API ADDRESS":"500 Medical Center Blvd, Webster, TX 77598",
    "COUNTY":"HARRIS",
    "PHONE":2813322511,
    "BEDS":25
    }
  },
  {
    "type": "Feature",
    "geometry": {
       "type": "Point",
       "coordinates":  [ -95.46829,30.284117 ]
    },
    "properties": {
    "NAME":"HCA HOUSTON HEALTHCARE CONROE",
    "ADDRESS":"504 MEDICAL CENTER BOULEVARD",
    "CITY":"CONROE",
    "STATE":"TX",
    "ZIP":77304,
    "API ADDRESS":"504 Medical Center Blvd, Conroe, TX 77304",
    "COUNTY":"MONTGOMERY",
    "PHONE":9365391111,
    "BEDS":21
    }
  },
  {
    "type": "Feature",
    "geometry": {
       "type": "Point",
       "coordinates":  [ -95.579303,29.73249 ]
    },
    "properties": {
    "NAME":"HEALTHBRIDGE CHILDRENS HOSPITAL-HOUSTON LTD",
    "ADDRESS":"2929 WOODLAND PARK DRIVE",
    "CITY":"HOUSTON",
    "STATE":"TX",
    "ZIP":77082,
    "API ADDRESS":"2929 Woodland Park Dr, Houston, TX 77082",
    "COUNTY":"HARRIS",
    "PHONE":2812937774,
    "BEDS":30
    }
  },
  {
    "type": "Feature",
    "geometry": {
       "type": "Point",
       "coordinates":  [ -99.665323,32.576489 ]
    },
    "properties": {
    "NAME":"HENDRICK MEDICAL CENTER",
    "ADDRESS":"1900 PINE",
    "CITY":"ABILENE",
    "STATE":"TX",
    "ZIP":79601,
    "API ADDRESS":"Abilene, TX 79601",
    "COUNTY":"TAYLOR",
    "PHONE":3256702000,
    "BEDS":10
    }
  },
  {
    "type": "Feature",
    "geometry": {
       "type": "Point",
       "coordinates":  [ -97.328127,32.726819 ]
    },
    "properties": {
    "NAME":"JOHN PETER SMITH HOSPITAL",
    "ADDRESS":"1500 S MAIN ST",
    "CITY":"FORT WORTH",
    "STATE":"TX",
    "ZIP":76104,
    "API ADDRESS":"1500 S Main St, Fort Worth, TX 76104",
    "COUNTY":"TARRANT",
    "PHONE":8179213431,
    "BEDS":16
    }
  },
  {
    "type": "Feature",
    "geometry": {
       "type": "Point",
       "coordinates":  [ -97.97749,26.152119 ]
    },
    "properties": {
    "NAME":"KNAPP MEDICAL CENTER",
    "ADDRESS":"1401 EAST EIGHTH STREET",
    "CITY":"WESLACO",
    "STATE":"TX",
    "ZIP":78596,
    "API ADDRESS":"1401 E 8th St, Weslaco, TX 78596",
    "COUNTY":"HIDALGO",
    "PHONE":9569688567,
    "BEDS":32
    }
  },
  {
    "type": "Feature",
    "geometry": {
       "type": "Point",
       "coordinates":  [ -99.479962,27.530851 ]
    },
    "properties": {
    "NAME":"LAREDO MEDICAL CENTER",
    "ADDRESS":"1700 EAST SAUNDERS STREET",
    "CITY":"LAREDO",
    "STATE":"TX",
    "ZIP":78041,
    "API ADDRESS":"1700 E Saunders St, Laredo, TX 78041",
    "COUNTY":"WEBB",
    "PHONE":9567965000,
    "BEDS":29
    }
  },
  {
    "type": "Feature",
    "geometry": {
       "type": "Point",
       "coordinates":  [ -106.49823,31.770037 ]
    },
    "properties": {
    "NAME":"LAS PALMAS MEDICAL CENTER A CAMPUS OF LPDS HEALTHCARE",
    "ADDRESS":"1801 NORTH OREGON STREET",
    "CITY":"EL PASO",
    "STATE":"TX",
    "ZIP":79902,
    "API ADDRESS":"1801 N Oregon St, El Paso, TX 79902",
    "COUNTY":"EL PASO",
    "PHONE":9155211776,
    "BEDS":29
    }
  },
  {
    "type": "Feature",
    "geometry": {
       "type": "Point",
       "coordinates":  [ -102.373391,31.845373 ]
    },
    "properties": {
    "NAME":"MEDICAL CENTER HOSPITAL",
    "ADDRESS":"500 W 4TH ST",
    "CITY":"ODESSA",
    "STATE":"TX",
    "ZIP":79761,
    "API ADDRESS":"500 W 4th St, Odessa, TX 79761",
    "COUNTY":"ECTOR",
    "PHONE":4326402413,
    "BEDS":25
    }
  },
  {
    "type": "Feature",
    "geometry": {
       "type": "Point",
       "coordinates":  [ -96.773229,32.911775 ]
    },
    "properties": {
    "NAME":"MEDICAL CITY DALLAS HOSPITAL",
    "ADDRESS":"7777 FOREST LN",
    "CITY":"DALLAS",
    "STATE":"TX",
    "ZIP":75230,
    "API ADDRESS":"7777 Forest Ln, Dallas, TX 75230",
    "COUNTY":"DALLAS",
    "PHONE":9725666000,
    "BEDS":86
    }
  },
  {
    "type": "Feature",
    "geometry": {
       "type": "Point",
       "coordinates":  [ -96.766206,33.021675 ]
    },
    "properties": {
    "NAME":"MEDICAL CITY PLANO",
    "ADDRESS":"3901 W 15TH ST",
    "CITY":"PLANO",
    "STATE":"TX",
    "ZIP":75075,
    "API ADDRESS":"3901 W 15th St, Plano, TX 75075",
    "COUNTY":"COLLIN",
    "PHONE":9725191101,
    "BEDS":18
    }
  },
  {
    "type": "Feature",
    "geometry": {
       "type": "Point",
       "coordinates":  [ -95.396173,29.714052 ]
    },
    "properties": {
    "NAME":"MEMORIAL HERMANN - TEXAS MEDICAL CENTER",
    "ADDRESS":"6411 FANNIN",
    "CITY":"HOUSTON",
    "STATE":"TX",
    "ZIP":77030,
    "API ADDRESS":"6411 Fannin St, Houston, TX 77030",
    "COUNTY":"HARRIS",
    "PHONE":7137044000,
    "BEDS":118
    }
  },
  {
    "type": "Feature",
    "geometry": {
       "type": "Point",
       "coordinates":  [ -95.786189,29.787086 ]
    },
    "properties": {
    "NAME":"MEMORIAL HERMANN KATY HOSPITAL",
    "ADDRESS":"23900 KATY FREEWAY",
    "CITY":"KATY",
    "STATE":"TX",
    "ZIP":77494,
    "API ADDRESS":"23900 Katy Fwy, Katy, TX 77494",
    "COUNTY":"HARRIS",
    "PHONE":2816447000,
    "BEDS":3
    }
  },
  {
    "type": "Feature",
    "geometry": {
       "type": "Point",
       "coordinates":  [ -95.545763,29.781137 ]
    },
    "properties": {
    "NAME":"MEMORIAL HERMANN MEMORIAL CITY MEDICAL CENTER",
    "ADDRESS":"921 GESSNER ROAD",
    "CITY":"HOUSTON",
    "STATE":"TX",
    "ZIP":77024,
    "API ADDRESS":"921 Gessner Rd, Houston, TX 77024",
    "COUNTY":"HARRIS",
    "PHONE":7139323000,
    "BEDS":18
    }
  },
  {
    "type": "Feature",
    "geometry": {
       "type": "Point",
       "coordinates":  [ -98.572298,29.507191 ]
    },
    "properties": {
    "NAME":"METHODIST HOSPITAL",
    "ADDRESS":"7700 FLOYD CURL DRIVE",
    "CITY":"SAN ANTONIO",
    "STATE":"TX",
    "ZIP":78229,
    "API ADDRESS":"7700 Floyd Curl Dr, San Antonio, TX 78229",
    "COUNTY":"BEXAR",
    "PHONE":2105754000,
    "BEDS":89
    }
  },
  {
    "type": "Feature",
    "geometry": {
       "type": "Point",
       "coordinates":  [ -98.491862,29.620513 ]
    },
    "properties": {
    "NAME":"NORTH CENTRAL BAPTIST HOSPITAL",
    "ADDRESS":"520 MADISON OAK",
    "CITY":"SAN ANTONIO",
    "STATE":"TX",
    "ZIP":78258,
    "API ADDRESS":"520 Madison Oak Dr, San Antonio, TX 78258",
    "COUNTY":"BEXAR",
    "PHONE":2102974600,
    "BEDS":58
    }
  },
  {
    "type": "Feature",
    "geometry": {
       "type": "Point",
       "coordinates":  [ -101.920803,35.199823 ]
    },
    "properties": {
    "NAME":"NORTHWEST TEXAS HOSPITAL",
    "ADDRESS":"1501 SOUTH COULTER STREET",
    "CITY":"AMARILLO",
    "STATE":"TX",
    "ZIP":79106,
    "API ADDRESS":"1501 S Coulter St, Amarillo, TX 79106",
    "COUNTY":"POTTER",
    "PHONE":8063541000,
    "BEDS":60
    }
  },
  {
    "type": "Feature",
    "geometry": {
       "type": "Point",
       "coordinates":  [ -102.365556,31.851086 ]
    },
    "properties": {
    "NAME":"ODESSA REGIONAL MEDICAL CENTER",
    "ADDRESS":"520 EAST SIXTH STREET",
    "CITY":"ODESSA",
    "STATE":"TX",
    "ZIP":79761,
    "API ADDRESS":"520 E 6th St, Odessa, TX 79761",
    "COUNTY":"ECTOR",
    "PHONE":4325828000,
    "BEDS":16
    }
  },
  {
    "type": "Feature",
    "geometry": {
       "type": "Point",
       "coordinates":  [ -100.434641,31.465082 ]
    },
    "properties": {
    "NAME":"SHANNON MEDICAL CENTER",
    "ADDRESS":"120 E HARRIS AVE",
    "CITY":"SAN ANGELO",
    "STATE":"TX",
    "ZIP":76903,
    "API ADDRESS":"120 E Harris Ave, San Angelo, TX 76903",
    "COUNTY":"TOM GREEN",
    "PHONE":3256536741,
    "BEDS":23
    }
  },
  {
    "type": "Feature",
    "geometry": {
       "type": "Point",
       "coordinates":  [ -98.181844,26.261293 ]
    },
    "properties": {
    "NAME":"SOUTH TEXAS HEALTH SYSTEM EDINBURG",
    "ADDRESS":"1102 WEST TRENTON ROAD",
    "CITY":"EDINBURG",
    "STATE":"TX",
    "ZIP":78539,
    "API ADDRESS":"1102 W Trenton Rd, Edinburg, TX 78539",
    "COUNTY":"HIDALGO",
    "PHONE":9563886000,
    "BEDS":78
    }
  },
  {
    "type": "Feature",
    "geometry": {
       "type": "Point",
       "coordinates":  [ -98.225692,26.186457 ]
    },
    "properties": {
    "NAME":"SOUTH TEXAS HEALTH SYSTEM MCALLEN",
    "ADDRESS":"301 WEST EXPRESSWAY 83",
    "CITY":"MCALLEN",
    "STATE":"TX",
    "ZIP":78503,
    "API ADDRESS":"301 Expwy 83, McAllen, TX 78503",
    "COUNTY":"HIDALGO",
    "PHONE":9566324000,
    "BEDS":22
    }
  },
  {
    "type": "Feature",
    "geometry": {
       "type": "Point",
       "coordinates":  [ -95.366207,29.748091 ]
    },
    "properties": {
    "NAME":"ST JOSEPH MEDICAL CENTER",
    "ADDRESS":"1401 ST JOSEPH PARKWAY",
    "CITY":"HOUSTON",
    "STATE":"TX",
    "ZIP":77002,
    "API ADDRESS":"1401 St Joseph Pkwy, Houston, TX 77002",
    "COUNTY":"HARRIS",
    "PHONE":7137565007,
    "BEDS":31
    }
  },
  {
    "type": "Feature",
    "geometry": {
       "type": "Point",
       "coordinates":  [ -95.400365,29.708155 ]
    },
    "properties": {
    "NAME":"TEXAS CHILDRENS HOSPITAL",
    "ADDRESS":"6621 FANNIN STREET",
    "CITY":"HOUSTON",
    "STATE":"TX",
    "ZIP":77030,
    "API ADDRESS":"6621 Fannin St, Houston, TX 77030",
    "COUNTY":"HARRIS",
    "PHONE":8328241000,
    "BEDS":333
    }
  },
  {
    "type": "Feature",
    "geometry": {
       "type": "Point",
       "coordinates":  [ -95.457618,30.200999 ]
    },
    "properties": {
    "NAME":"TEXAS CHILDRENS HOSPITAL THE WOODLANDS",
    "ADDRESS":"17600 INTERSTATE 45 SOUTH",
    "CITY":"THE WOODLANDS",
    "STATE":"TX",
    "ZIP":77384,
    "API ADDRESS":"17600 S I-45, Conroe, TX 77384",
    "COUNTY":"MONTGOMERY",
    "PHONE":9362675000,
    "BEDS":46
    }
  },
  {
    "type": "Feature",
    "geometry": {
       "type": "Point",
       "coordinates":  [ -95.692415,29.7873 ]
    },
    "properties": {
    "NAME":"TEXAS CHILDRENS HOSPITAL WEST CAMPUS",
    "ADDRESS":"18200 KATY FREEWAY",
    "CITY":"HOUSTON",
    "STATE":"TX",
    "ZIP":77094,
    "API ADDRESS":"18200 Katy Fwy, Houston, TX 77094",
    "COUNTY":"HARRIS",
    "PHONE":8322271000,
    "BEDS":64
    }
  },
  {
    "type": "Feature",
    "geometry": {
       "type": "Point",
       "coordinates":  [ -96.761274,32.879541 ]
    },
    "properties": {
    "NAME":"TEXAS HEALTH PRESBYTERIAN HOSPITAL DALLAS",
    "ADDRESS":"8200 WALNUT HILL LN",
    "CITY":"DALLAS",
    "STATE":"TX",
    "ZIP":75231,
    "API ADDRESS":"8200 Walnut Hill Ln, Dallas, TX 75231",
    "COUNTY":"DALLAS",
    "PHONE":2143456789,
    "BEDS":16
    }
  },
  {
    "type": "Feature",
    "geometry": {
       "type": "Point",
       "coordinates":  [ -96.81569,32.801825 ]
    },
    "properties": {
    "NAME":"TEXAS SCOTTISH RITE HOSPITAL FOR CHILDREN",
    "ADDRESS":"2222 WELBORN STREET",
    "CITY":"DALLAS",
    "STATE":"TX",
    "ZIP":75219,
    "API ADDRESS":"2222 Welborn St, Dallas, TX 75219",
    "COUNTY":"DALLAS",
    "PHONE":2145595000,
    "BEDS":100
    }
  },
  {
    "type": "Feature",
    "geometry": {
       "type": "Point",
       "coordinates":  [ -96.584679,33.710009 ]
    },
    "properties": {
    "NAME":"TEXOMA MEDICAL CENTER",
    "ADDRESS":"5016 SOUTH US HIGHWAY 75",
    "CITY":"DENISON",
    "STATE":"TX",
    "ZIP":75020,
    "API ADDRESS":"5016 S US Highway 75, Denison, TX 75020",
    "COUNTY":"GRAYSON",
    "PHONE":9034164000,
    "BEDS":11
    }
  },
  {
    "type": "Feature",
    "geometry": {
       "type": "Point",
       "coordinates":  [ -106.499726,31.771502 ]
    },
    "properties": {
    "NAME":"THE HOSPITALS OF PROVIDENCE MEMORIAL CAMPUS",
    "ADDRESS":"2001 NORTH OREGON STREET",
    "CITY":"EL PASO",
    "STATE":"TX",
    "ZIP":79902,
    "API ADDRESS":"2001 N Oregon St, El Paso, TX 79902",
    "COUNTY":"EL PASO",
    "PHONE":9155776011,
    "BEDS":83
    }
  },
  {
    "type": "Feature",
    "geometry": {
       "type": "Point",
       "coordinates":  [ -98.500328,33.902797 ]
    },
    "properties": {
    "NAME":"UNITED REGIONAL HEALTH CARE SYSTEM",
    "ADDRESS":"1600 11TH STREET",
    "CITY":"WICHITA FALLS",
    "STATE":"TX",
    "ZIP":76301,
    "API ADDRESS":"1600 11th St, Wichita Falls, TX 76301",
    "COUNTY":"WICHITA",
    "PHONE":9407648313,
    "BEDS":7
    }
  },
  {
    "type": "Feature",
    "geometry": {
       "type": "Point",
       "coordinates":  [ -98.578904,29.508584 ]
    },
    "properties": {
    "NAME":"UNIVERSITY HOSPITAL",
    "ADDRESS":"4502 MEDICAL DRIVE",
    "CITY":"SAN ANTONIO",
    "STATE":"TX",
    "ZIP":78229,
    "API ADDRESS":"4502 Medical Dr, San Antonio, TX 78229",
    "COUNTY":"BEXAR",
    "PHONE":2103584000,
    "BEDS":98
    }
  },
  {
    "type": "Feature",
    "geometry": {
       "type": "Point",
       "coordinates":  [ -101.892086,33.588252 ]
    },
    "properties": {
    "NAME":"UNIVERSITY MEDICAL CENTER",
    "ADDRESS":"602 INDIANA AVENUE",
    "CITY":"LUBBOCK",
    "STATE":"TX",
    "ZIP":79415,
    "API ADDRESS":"602 Indiana Ave, Lubbock, TX 79415",
    "COUNTY":"LUBBOCK",
    "PHONE":8067758200,
    "BEDS":25
    }
  },
  {
    "type": "Feature",
    "geometry": {
       "type": "Point",
       "coordinates":  [ -97.671586,26.17459 ]
    },
    "properties": {
    "NAME":"VALLEY BAPTIST MEDICAL CENTER",
    "ADDRESS":"2101 PEASE ST",
    "CITY":"HARLINGEN",
    "STATE":"TX",
    "ZIP":78550,
    "API ADDRESS":"2101 Pease St, Harlingen, TX 78550",
    "COUNTY":"CAMERON",
    "PHONE":9563891674,
    "BEDS":48
    }
  },
  {
    "type": "Feature",
    "geometry": {
       "type": "Point",
       "coordinates":  [ -97.509916,25.916015 ]
    },
    "properties": {
    "NAME":"VALLEY BAPTIST MEDICAL CENTER - BROWNSVILLE",
    "ADDRESS":"1040 W JEFFERSON ST",
    "CITY":"BROWNSVILLE",
    "STATE":"TX",
    "ZIP":78520,
    "API ADDRESS":"W Jefferson St, Brownsville, TX 78520",
    "COUNTY":"CAMERON",
    "PHONE":9566985421,
    "BEDS":17
    }
  },
  {
    "type": "Feature",
    "geometry": {
       "type": "Point",
       "coordinates":  [ -97.497577,25.980037 ]
    },
    "properties": {
    "NAME":"VALLEY REGIONAL MEDICAL CENTER",
    "ADDRESS":"100A E ALTON GLOOR BLVD",
    "CITY":"BROWNSVILLE",
    "STATE":"TX",
    "ZIP":78526,
    "API ADDRESS":"100 E Alton Gloor Blvd, Brownsville, TX 78526",
    "COUNTY":"CAMERON",
    "PHONE":9563507000,
    "BEDS":17
    }
  },
  {
    "type": "Feature",
    "geometry": {
       "type": "Point",
       "coordinates":  [ -95.723086,32.680508 ]
    },
    "properties": {
    "NAME":"VAN ZANDT REGIONAL HOSPITAL",
    "ADDRESS":"707 NORTH WALDRIP ST",
    "CITY":"GRAND SALINE",
    "STATE":"TX",
    "ZIP":75140,
    "API ADDRESS":"707 N Waldrip St, Grand Saline, TX 75140",
    "COUNTY":"VAN ZANDT",
    "PHONE":9039136303,
    "BEDS":4
    }
  },
  {
    "type": "Feature",
    "geometry": {
       "type": "Point",
       "coordinates":  [ -94.074189,33.412317 ]
    },
    "properties": {
    "NAME":"WADLEY REGIONAL MEDICAL CENTER",
    "ADDRESS":"1000 PINE",
    "CITY":"TEXARKANA",
    "STATE":"TX",
    "ZIP":75501,
    "API ADDRESS":"904 Texarkana Ave, Texarkana, TX 75501",
    "COUNTY":"BOWIE",
    "PHONE":9037988000,
    "BEDS":49
    }
  }
]
}