{
   "type": "FeatureCollection",
   "features": [
  {
    "type": "Feature",
    "geometry": {
       "type": "Point",
       "coordinates":  [ -97.19945,31.514413 ]
    },
    "properties": {
    "NAME":"ASCENSION PROVIDENCE",
    "ADDRESS":"6901 MEDICAL PARKWAY",
    "CITY":"WACO",
    "STATE":"TX",
    "ZIP":76712,
    "API ADDRESS":"6901 Medical Pkwy, Waco, TX 76712",
    "COUNTY":"MCLENNAN",
    "PHONE":2547514000,
    "BEDS":8
    }
  },
  {
    "type": "Feature",
    "geometry": {
       "type": "Point",
       "coordinates":  [ -97.745402,30.304914 ]
    },
    "properties": {
    "NAME":"ASCENSION SETON MEDICAL CENTER AUSTIN",
    "ADDRESS":"1201 WEST 38TH STREET",
    "CITY":"AUSTIN",
    "STATE":"TX",
    "ZIP":78705,
    "API ADDRESS":"1201 W 38th St, Austin, TX 78705",
    "COUNTY":"TRAVIS",
    "PHONE":5123241000,
    "BEDS":9
    }
  },
  {
    "type": "Feature",
    "geometry": {
       "type": "Point",
       "coordinates":  [ -97.744736,30.405845 ]
    },
    "properties": {
    "NAME":"ASCENSION SETON NORTHWEST",
    "ADDRESS":"11113 RESEARCH BOULEVARD",
    "CITY":"AUSTIN",
    "STATE":"TX",
    "ZIP":78759,
    "API ADDRESS":"11113 Research Blvd, Austin, TX 78759",
    "COUNTY":"TRAVIS",
    "PHONE":5123246900,
    "BEDS":13
    }
  },
  {
    "type": "Feature",
    "geometry": {
       "type": "Point",
       "coordinates":  [ -97.345545,32.729334 ]
    },
    "properties": {
    "NAME":"BAYLOR SCOTT & WHITE ALL SAINTS MEDICAL CENTER - FORT WORTH",
    "ADDRESS":"1400 8TH AVE",
    "CITY":"FORT WORTH",
    "STATE":"TX",
    "ZIP":76104,
    "API ADDRESS":"1400 8th Ave, Fort Worth, TX 76104",
    "COUNTY":"TARRANT",
    "PHONE":8179262544,
    "BEDS":37
    }
  },
  {
    "type": "Feature",
    "geometry": {
       "type": "Point",
       "coordinates":  [ -97.093581,32.933873 ]
    },
    "properties": {
    "NAME":"BAYLOR SCOTT & WHITE MEDICAL CENTER - GRAPEVINE",
    "ADDRESS":"1650 W COLLEGE ST",
    "CITY":"GRAPEVINE",
    "STATE":"TX",
    "ZIP":76051,
    "API ADDRESS":"1650 W College St, Grapevine, TX 76051",
    "COUNTY":"TARRANT",
    "PHONE":8174811588,
    "BEDS":1
    }
  },
  {
    "type": "Feature",
    "geometry": {
       "type": "Point",
       "coordinates":  [ -97.157815,31.487525 ]
    },
    "properties": {
    "NAME":"BAYLOR SCOTT & WHITE MEDICAL CENTER - HILLCREST",
    "ADDRESS":"100 HILLCREST MEDICAL BLV",
    "CITY":"WACO",
    "STATE":"TX",
    "ZIP":76712,
    "API ADDRESS":"120 Hillcrest Medical Blvd, Waco, TX 76712",
    "COUNTY":"MCLENNAN",
    "PHONE":2542029414,
    "BEDS":2
    }
  },
  {
    "type": "Feature",
    "geometry": {
       "type": "Point",
       "coordinates":  [ -96.508664,32.917635 ]
    },
    "properties": {
    "NAME":"BAYLOR SCOTT & WHITE MEDICAL CENTER - LAKE POINTE",
    "ADDRESS":"6800 SCENIC DR",
    "CITY":"ROWLETT",
    "STATE":"TX",
    "ZIP":75088,
    "API ADDRESS":"6800 Scenic Dr, Rowlett, TX 75088",
    "COUNTY":"ROCKWALL",
    "PHONE":9725208000,
    "BEDS":13
    }
  },
  {
    "type": "Feature",
    "geometry": {
       "type": "Point",
       "coordinates":  [ -96.682581,33.221085 ]
    },
    "properties": {
    "NAME":"BAYLOR SCOTT & WHITE MEDICAL CENTER - MCKINNEY",
    "ADDRESS":"5252 W UNIVERSITY DR",
    "CITY":"MCKINNEY",
    "STATE":"TX",
    "ZIP":75071,
    "API ADDRESS":"5252 W University Dr, McKinney, TX 75071",
    "COUNTY":"COLLIN",
    "PHONE":4697642200,
    "BEDS":4
    }
  },
  {
    "type": "Feature",
    "geometry": {
       "type": "Point",
       "coordinates":  [ -97.363854,31.077709 ]
    },
    "properties": {
    "NAME":"BAYLOR SCOTT & WHITE MEDICAL CENTER - TEMPLE",
    "ADDRESS":"2401 S 31ST ST",
    "CITY":"TEMPLE",
    "STATE":"TX",
    "ZIP":76508,
    "API ADDRESS":"2401 S 31st St, Temple, TX 76504",
    "COUNTY":"BELL",
    "PHONE":2547242111,
    "BEDS":8
    }
  },
  {
    "type": "Feature",
    "geometry": {
       "type": "Point",
       "coordinates":  [ -96.858089,32.427936 ]
    },
    "properties": {
    "NAME":"BAYLOR SCOTT & WHITE MEDICAL CENTER - WAXAHACHIE",
    "ADDRESS":"2400 N IH 35 E",
    "CITY":"WAXAHACHIE",
    "STATE":"TX",
    "ZIP":75165,
    "API ADDRESS":"2400 N I-35 E, Waxahachie, TX 75165",
    "COUNTY":"ELLIS",
    "PHONE":4698434000,
    "BEDS":5
    }
  },
  {
    "type": "Feature",
    "geometry": {
       "type": "Point",
       "coordinates":  [ -94.730171,32.500863 ]
    },
    "properties": {
    "NAME":"CHRISTUS GOOD SHEPHERD MEDICAL CENTER - LONGVIEW",
    "ADDRESS":"700 E MARSHALL AVENUE",
    "CITY":"LONGVIEW",
    "STATE":"TX",
    "ZIP":75601,
    "API ADDRESS":"700 E Marshall Ave, Longview, TX 75601",
    "COUNTY":"GREGG",
    "PHONE":9033151811,
    "BEDS":18
    }
  },
  {
    "type": "Feature",
    "geometry": {
       "type": "Point",
       "coordinates":  [ -94.075579,33.464014 ]
    },
    "properties": {
    "NAME":"CHRISTUS ST MICHAEL HEALTH SYSTEM",
    "ADDRESS":"2600 ST MICHAEL DRIVE",
    "CITY":"TEXARKANA",
    "STATE":"TX",
    "ZIP":75503,
    "API ADDRESS":"2600 St Michael Dr, Texarkana, TX 75503",
    "COUNTY":"BOWIE",
    "PHONE":9036142211,
    "BEDS":7
    }
  },
  {
    "type": "Feature",
    "geometry": {
       "type": "Point",
       "coordinates":  [ -97.384405,27.74814 ]
    },
    "properties": {
    "NAME":"DRISCOLL CHILDRENS HOSPITAL",
    "ADDRESS":"3533 SOUTH ALAMEDA",
    "CITY":"CORPUS CHRISTI",
    "STATE":"TX",
    "ZIP":78411,
    "API ADDRESS":"3533 S Alameda St, Corpus Christi, TX 78411",
    "COUNTY":"NUECES",
    "PHONE":3616945021,
    "BEDS":6
    }
  },
  {
    "type": "Feature",
    "geometry": {
       "type": "Point",
       "coordinates":  [ -106.433843,31.771259 ]
    },
    "properties": {
    "NAME":"EL PASO CHILDRENS HOSPITAL",
    "ADDRESS":"4845 ALAMEDA AVE",
    "CITY":"EL PASO",
    "STATE":"TX",
    "ZIP":79905,
    "API ADDRESS":"4845 Alameda Ave, El Paso, TX 79905",
    "COUNTY":"EL PASO",
    "PHONE":9152428600,
    "BEDS":24
    }
  },
  {
    "type": "Feature",
    "geometry": {
       "type": "Point",
       "coordinates":  [ -97.947397,29.567935 ]
    },
    "properties": {
    "NAME":"GUADALUPE REGIONAL MEDICAL CENTER",
    "ADDRESS":"1215 EAST COURT STREET",
    "CITY":"SEGUIN",
    "STATE":"TX",
    "ZIP":78155,
    "API ADDRESS":"1215 E Court St, Seguin, TX 78155",
    "COUNTY":"GUADALUPE",
    "PHONE":8303792411,
    "BEDS":2
    }
  },
  {
    "type": "Feature",
    "geometry": {
       "type": "Point",
       "coordinates":  [ -95.594442,29.729197 ]
    },
    "properties": {
    "NAME":"HCA HOUSTON HEALTHCARE WEST",
    "ADDRESS":"12141 RICHMOND AVENUE",
    "CITY":"HOUSTON",
    "STATE":"TX",
    "ZIP":77082,
    "API ADDRESS":"12141 Richmond Ave, Houston, TX 77082",
    "COUNTY":"HARRIS",
    "PHONE":2815583444,
    "BEDS":8
    }
  },
  {
    "type": "Feature",
    "geometry": {
       "type": "Point",
       "coordinates":  [ -94.979045,29.769072 ]
    },
    "properties": {
    "NAME":"HOUSTON METHODIST BAYTOWN HOSPITAL",
    "ADDRESS":"4401 GARTH RD",
    "CITY":"BAYTOWN",
    "STATE":"TX",
    "ZIP":77521,
    "API ADDRESS":"4401 Garth Rd, Baytown, TX 77521",
    "COUNTY":"HARRIS",
    "PHONE":2814208600,
    "BEDS":14
    }
  },
  {
    "type": "Feature",
    "geometry": {
       "type": "Point",
       "coordinates":  [ -95.400335,29.709033 ]
    },
    "properties": {
    "NAME":"HOUSTON METHODIST HOSPITAL",
    "ADDRESS":"6565 FANNIN ST",
    "CITY":"HOUSTON",
    "STATE":"TX",
    "ZIP":77030,
    "API ADDRESS":"6565 Fannin St, Houston, TX 77030",
    "COUNTY":"HARRIS",
    "PHONE":7137903311,
    "BEDS":6
    }
  },
  {
    "type": "Feature",
    "geometry": {
       "type": "Point",
       "coordinates":  [ -95.631127,29.588964 ]
    },
    "properties": {
    "NAME":"HOUSTON METHODIST SUGAR LAND HOSPITAL",
    "ADDRESS":"16655 SOUTHWEST FWY",
    "CITY":"SUGAR LAND",
    "STATE":"TX",
    "ZIP":77479,
    "API ADDRESS":"16655 Southwest Fwy, Sugar Land, TX 77479",
    "COUNTY":"FORT BEND",
    "PHONE":2812747000,
    "BEDS":13
    }
  },
  {
    "type": "Feature",
    "geometry": {
       "type": "Point",
       "coordinates":  [ -95.451727,30.205188 ]
    },
    "properties": {
    "NAME":"HOUSTON METHODIST THE WOODLANDS HOSPITAL",
    "ADDRESS":"17201 I-45 SOUTH",
    "CITY":"THE WOODLANDS",
    "STATE":"TX",
    "ZIP":77385,
    "API ADDRESS":"17201 I-45 S, Shenandoah, TX 77385",
    "COUNTY":"MONTGOMERY",
    "PHONE":9362702000,
    "BEDS":1
    }
  },
  {
    "type": "Feature",
    "geometry": {
       "type": "Point",
       "coordinates":  [ -95.697905,29.787208 ]
    },
    "properties": {
    "NAME":"HOUSTON METHODIST WEST HOSPITAL",
    "ADDRESS":"18500 KATY FWY",
    "CITY":"HOUSTON",
    "STATE":"TX",
    "ZIP":77094,
    "API ADDRESS":"18500 Katy Fwy, Houston, TX 77094",
    "COUNTY":"HARRIS",
    "PHONE":8325221000,
    "BEDS":1
    }
  },
  {
    "type": "Feature",
    "geometry": {
       "type": "Point",
       "coordinates":  [ -95.551132,29.966597 ]
    },
    "properties": {
    "NAME":"HOUSTON METHODIST WILLOWBROOK HOSPITAL",
    "ADDRESS":"18220 STATE HIGHWAY 249",
    "CITY":"HOUSTON",
    "STATE":"TX",
    "ZIP":77070,
    "API ADDRESS":"18220 Tomball Pkwy, Houston, TX 77070",
    "COUNTY":"HARRIS",
    "PHONE":2817371000,
    "BEDS":12
    }
  },
  {
    "type": "Feature",
    "geometry": {
       "type": "Point",
       "coordinates":  [ -97.113928,32.690201 ]
    },
    "properties": {
    "NAME":"MEDICAL CITY ARLINGTON",
    "ADDRESS":"3301 MATLOCK RD",
    "CITY":"ARLINGTON",
    "STATE":"TX",
    "ZIP":76015,
    "API ADDRESS":"3301 Matlock Rd, Arlington, TX 76015",
    "COUNTY":"TARRANT",
    "PHONE":8174653241,
    "BEDS":1
    }
  },
  {
    "type": "Feature",
    "geometry": {
       "type": "Point",
       "coordinates":  [ -95.731952,29.986183 ]
    },
    "properties": {
    "NAME":"MEMORIAL HERMANN CYPRESS HOSPITAL",
    "ADDRESS":"27800 NORTHWEST FREEWAY",
    "CITY":"CYPRESS",
    "STATE":"TX",
    "ZIP":77433,
    "API ADDRESS":"27700 Northwest Fwy, Cypress, TX 77433",
    "COUNTY":"HARRIS",
    "PHONE":3462314000,
    "BEDS":8
    }
  },
  {
    "type": "Feature",
    "geometry": {
       "type": "Point",
       "coordinates":  [ -95.43067,29.810888 ]
    },
    "properties": {
    "NAME":"MEMORIAL HERMANN GREATER HEIGHTS HOSPITAL",
    "ADDRESS":"1635 NORTH LOOP WEST",
    "CITY":"HOUSTON",
    "STATE":"TX",
    "ZIP":77008,
    "API ADDRESS":"1635 N Loop W, Houston, TX 77008",
    "COUNTY":"HARRIS",
    "PHONE":7138672000,
    "BEDS":12
    }
  },
  {
    "type": "Feature",
    "geometry": {
       "type": "Point",
       "coordinates":  [ -95.786189,29.787086 ]
    },
    "properties": {
    "NAME":"MEMORIAL HERMANN KATY HOSPITAL",
    "ADDRESS":"23900 KATY FREEWAY",
    "CITY":"KATY",
    "STATE":"TX",
    "ZIP":77494,
    "API ADDRESS":"23900 Katy Fwy, Katy, TX 77494",
    "COUNTY":"HARRIS",
    "PHONE":2816447000,
    "BEDS":9
    }
  },
  {
    "type": "Feature",
    "geometry": {
       "type": "Point",
       "coordinates":  [ -95.545763,29.781137 ]
    },
    "properties": {
    "NAME":"MEMORIAL HERMANN MEMORIAL CITY MEDICAL CENTER",
    "ADDRESS":"921 GESSNER ROAD",
    "CITY":"HOUSTON",
    "STATE":"TX",
    "ZIP":77024,
    "API ADDRESS":"921 Gessner Rd, Houston, TX 77024",
    "COUNTY":"HARRIS",
    "PHONE":7139323000,
    "BEDS":1
    }
  },
  {
    "type": "Feature",
    "geometry": {
       "type": "Point",
       "coordinates":  [ -95.273599,29.994309 ]
    },
    "properties": {
    "NAME":"MEMORIAL HERMANN NORTHEAST HOSPITAL",
    "ADDRESS":"18951 MEMORIAL NORTH",
    "CITY":"HUMBLE",
    "STATE":"TX",
    "ZIP":77338,
    "API ADDRESS":"18951 Memorial Blvd, Humble, TX 77338",
    "COUNTY":"HARRIS",
    "PHONE":2815407700,
    "BEDS":4
    }
  },
  {
    "type": "Feature",
    "geometry": {
       "type": "Point",
       "coordinates":  [ -95.690119,29.564723 ]
    },
    "properties": {
    "NAME":"MEMORIAL HERMANN SUGAR LAND HOSPITAL",
    "ADDRESS":"17500 WEST GRAND PARKWAY SOUTH",
    "CITY":"SUGAR LAND",
    "STATE":"TX",
    "ZIP":77479,
    "API ADDRESS":"17500 W Grand Pkwy S, Sugar Land, TX 77479",
    "COUNTY":"FORT BEND",
    "PHONE":2817255202,
    "BEDS":12
    }
  },
  {
    "type": "Feature",
    "geometry": {
       "type": "Point",
       "coordinates":  [ -95.454003,30.174078 ]
    },
    "properties": {
    "NAME":"MEMORIAL HERMANN THE WOODLANDS MEDICAL CENTER",
    "ADDRESS":"9250 PINECROFT",
    "CITY":"THE WOODLANDS",
    "STATE":"TX",
    "ZIP":77380,
    "API ADDRESS":"9250 Pinecroft Dr, Shenandoah, TX 77380",
    "COUNTY":"MONTGOMERY",
    "PHONE":7138972301,
    "BEDS":6
    }
  },
  {
    "type": "Feature",
    "geometry": {
       "type": "Point",
       "coordinates":  [ -98.572298,29.507191 ]
    },
    "properties": {
    "NAME":"METHODIST HOSPITAL",
    "ADDRESS":"7700 FLOYD CURL DRIVE",
    "CITY":"SAN ANTONIO",
    "STATE":"TX",
    "ZIP":78229,
    "API ADDRESS":"7700 Floyd Curl Dr, San Antonio, TX 78229",
    "COUNTY":"BEXAR",
    "PHONE":2105754000,
    "BEDS":1
    }
  },
  {
    "type": "Feature",
    "geometry": {
       "type": "Point",
       "coordinates":  [ -98.476211,29.615388 ]
    },
    "properties": {
    "NAME":"METHODIST HOSPITAL | STONE OAK",
    "ADDRESS":"1139 EAST SONTERRA BLVD",
    "CITY":"SAN ANTONIO",
    "STATE":"TX",
    "ZIP":78258,
    "API ADDRESS":"1139 E Sonterra Blvd, San Antonio, TX 78258",
    "COUNTY":"BEXAR",
    "PHONE":2106382000,
    "BEDS":1
    }
  },
  {
    "type": "Feature",
    "geometry": {
       "type": "Point",
       "coordinates":  [ -96.69137,32.979315 ]
    },
    "properties": {
    "NAME":"METHODIST RICHARDSON MEDICAL CENTER",
    "ADDRESS":"2831 E PRES GEORGE BUSH HWY",
    "CITY":"RICHARDSON",
    "STATE":"TX",
    "ZIP":75082,
    "API ADDRESS":"Richardson, TX 75082",
    "COUNTY":"COLLIN",
    "PHONE":4692042000,
    "BEDS":12
    }
  },
  {
    "type": "Feature",
    "geometry": {
       "type": "Point",
       "coordinates":  [ -102.100201,31.997566 ]
    },
    "properties": {
    "NAME":"MIDLAND MEMORIAL HOSPITAL",
    "ADDRESS":"400 ROSALIND REDFERN GROVER PKWY",
    "CITY":"MIDLAND",
    "STATE":"TX",
    "ZIP":79701,
    "API ADDRESS":"400 Rosalind Redfern Grover Pkwy, Midland, TX 79701",
    "COUNTY":"MIDLAND",
    "PHONE":4322211111,
    "BEDS":1
    }
  },
  {
    "type": "Feature",
    "geometry": {
       "type": "Point",
       "coordinates":  [ -98.313817,26.196411 ]
    },
    "properties": {
    "NAME":"MISSION REGIONAL MEDICAL CENTER",
    "ADDRESS":"900 SOUTH BRYAN ROAD",
    "CITY":"MISSION",
    "STATE":"TX",
    "ZIP":78572,
    "API ADDRESS":"900 S Bryan Rd, Mission, TX 78572",
    "COUNTY":"HIDALGO",
    "PHONE":9563239103,
    "BEDS":2
    }
  },
  {
    "type": "Feature",
    "geometry": {
       "type": "Point",
       "coordinates":  [ -94.653926,31.653211 ]
    },
    "properties": {
    "NAME":"NACOGDOCHES MEDICAL CENTER",
    "ADDRESS":"4920 N E STALLINGS DRIVE",
    "CITY":"NACOGDOCHES",
    "STATE":"TX",
    "ZIP":75965,
    "API ADDRESS":"4920 NE Stallings Dr, Nacogdoches, TX 75965",
    "COUNTY":"NACOGDOCHES",
    "PHONE":9365699481,
    "BEDS":8
    }
  },
  {
    "type": "Feature",
    "geometry": {
       "type": "Point",
       "coordinates":  [ -97.738627,30.376097 ]
    },
    "properties": {
    "NAME":"NORTH AUSTIN MEDICAL CENTER",
    "ADDRESS":"12221 MOPAC EXPRESSWAY NORTH",
    "CITY":"AUSTIN",
    "STATE":"TX",
    "ZIP":78758,
    "API ADDRESS":"N Mo-Pac Expy, Austin, TX 78759",
    "COUNTY":"TRAVIS",
    "PHONE":5129012529,
    "BEDS":1
    }
  },
  {
    "type": "Feature",
    "geometry": {
       "type": "Point",
       "coordinates":  [ -98.491862,29.620513 ]
    },
    "properties": {
    "NAME":"NORTH CENTRAL BAPTIST HOSPITAL",
    "ADDRESS":"520 MADISON OAK",
    "CITY":"SAN ANTONIO",
    "STATE":"TX",
    "ZIP":78258,
    "API ADDRESS":"520 Madison Oak Dr, San Antonio, TX 78258",
    "COUNTY":"BEXAR",
    "PHONE":2102974600,
    "BEDS":1
    }
  },
  {
    "type": "Feature",
    "geometry": {
       "type": "Point",
       "coordinates":  [ -95.713908,29.55578 ]
    },
    "properties": {
    "NAME":"OAKBEND MEDICAL CENTER",
    "ADDRESS":"22003 SOUTHWEST FREEWAY",
    "CITY":"RICHMOND",
    "STATE":"TX",
    "ZIP":77469,
    "API ADDRESS":"22003 Southwest Fwy, Richmond, TX 77469",
    "COUNTY":"FORT BEND",
    "PHONE":2813412000,
    "BEDS":8
    }
  },
  {
    "type": "Feature",
    "geometry": {
       "type": "Point",
       "coordinates":  [ -96.837839,32.811035 ]
    },
    "properties": {
    "NAME":"PARKLAND MEMORIAL HOSPITAL",
    "ADDRESS":"5200 - 5201 HARRY HINES BOULEVARD",
    "CITY":"DALLAS",
    "STATE":"TX",
    "ZIP":75235,
    "API ADDRESS":"5201 Harry Hines Blvd, Dallas, TX 75235",
    "COUNTY":"DALLAS",
    "PHONE":2145900356,
    "BEDS":12
    }
  },
  {
    "type": "Feature",
    "geometry": {
       "type": "Point",
       "coordinates":  [ -97.688147,30.626493 ]
    },
    "properties": {
    "NAME":"ST DAVIDS GEORGETOWN HOSPITAL A ST DAVIDS MEDICAL CENTER FACILI",
    "ADDRESS":"2000 SCENIC DRIVE",
    "CITY":"GEORGETOWN",
    "STATE":"TX",
    "ZIP":78626,
    "API ADDRESS":"2000 Scenic Dr, Georgetown, TX 78626",
    "COUNTY":"WILLIAMSON",
    "PHONE":5129433000,
    "BEDS":2
    }
  },
  {
    "type": "Feature",
    "geometry": {
       "type": "Point",
       "coordinates":  [ -97.726745,30.290681 ]
    },
    "properties": {
    "NAME":"ST DAVIDS MEDICAL CENTER",
    "ADDRESS":"919 E 32ND STREET",
    "CITY":"AUSTIN",
    "STATE":"TX",
    "ZIP":78705,
    "API ADDRESS":"919 E 32nd St, Austin, TX 78705",
    "COUNTY":"TRAVIS",
    "PHONE":5124767111,
    "BEDS":33
    }
  },
  {
    "type": "Feature",
    "geometry": {
       "type": "Point",
       "coordinates":  [ -97.773479,30.227468 ]
    },
    "properties": {
    "NAME":"ST DAVIDS SOUTH AUSTIN MEDICAL CENTER",
    "ADDRESS":"901 W BEN WHITE BLVD",
    "CITY":"AUSTIN",
    "STATE":"TX",
    "ZIP":78704,
    "API ADDRESS":"901 W Ben White Blvd, Austin, TX 78704",
    "COUNTY":"TRAVIS",
    "PHONE":5124472211,
    "BEDS":9
    }
  },
  {
    "type": "Feature",
    "geometry": {
       "type": "Point",
       "coordinates":  [ -95.400365,29.708155 ]
    },
    "properties": {
    "NAME":"TEXAS CHILDRENS HOSPITAL",
    "ADDRESS":"6621 FANNIN STREET",
    "CITY":"HOUSTON",
    "STATE":"TX",
    "ZIP":77030,
    "API ADDRESS":"6621 Fannin St, Houston, TX 77030",
    "COUNTY":"HARRIS",
    "PHONE":8328241000,
    "BEDS":6
    }
  },
  {
    "type": "Feature",
    "geometry": {
       "type": "Point",
       "coordinates":  [ -97.33891,32.736811 ]
    },
    "properties": {
    "NAME":"TEXAS HEALTH HARRIS METHODIST HOSPITAL FORT WORTH",
    "ADDRESS":"1301 PENNSYLVANIA AVE",
    "CITY":"FORT WORTH",
    "STATE":"TX",
    "ZIP":76104,
    "API ADDRESS":"1301 Pennsylvania Ave, Fort Worth, TX 76104",
    "COUNTY":"TARRANT",
    "PHONE":8172502000,
    "BEDS":8
    }
  },
  {
    "type": "Feature",
    "geometry": {
       "type": "Point",
       "coordinates":  [ -97.099405,32.537001 ]
    },
    "properties": {
    "NAME":"TEXAS HEALTH HOSPITAL MANSFIELD",
    "ADDRESS":"2300 LONE STAR ROAD",
    "CITY":"MANSFIELD",
    "STATE":"TX",
    "ZIP":76063,
    "API ADDRESS":"2300 Lone Star Rd, Mansfield, TX 76063",
    "COUNTY":"JOHNSON",
    "PHONE":6823415000,
    "BEDS":3
    }
  },
  {
    "type": "Feature",
    "geometry": {
       "type": "Point",
       "coordinates":  [ -97.316183,32.586584 ]
    },
    "properties": {
    "NAME":"TEXAS HEALTH HUGULEY HOSPITAL",
    "ADDRESS":"11801 SOUTH FREEWAY",
    "CITY":"BURLESON",
    "STATE":"TX",
    "ZIP":76028,
    "API ADDRESS":"11801 South Fwy, Burleson, TX 76028",
    "COUNTY":"TARRANT",
    "PHONE":8172939110,
    "BEDS":3
    }
  },
  {
    "type": "Feature",
    "geometry": {
       "type": "Point",
       "coordinates":  [ -96.673545,33.116231 ]
    },
    "properties": {
    "NAME":"TEXAS HEALTH PRESBYTERIAN HOSPITAL ALLEN",
    "ADDRESS":"1105 CENTRAL EXPY N",
    "CITY":"ALLEN",
    "STATE":"TX",
    "ZIP":75013,
    "API ADDRESS":"1105 N Central Expy, Allen, TX 75013",
    "COUNTY":"COLLIN",
    "PHONE":9727471000,
    "BEDS":4
    }
  },
  {
    "type": "Feature",
    "geometry": {
       "type": "Point",
       "coordinates":  [ -97.06763,33.045566 ]
    },
    "properties": {
    "NAME":"TEXAS HEALTH PRESBYTERIAN HOSPITAL FLOWER MOUND",
    "ADDRESS":"4400 LONG PRAIRIE ROAD",
    "CITY":"FLOWER MOUND",
    "STATE":"TX",
    "ZIP":75028,
    "API ADDRESS":"4400 Long Prairie Rd, Flower Mound, TX 75028",
    "COUNTY":"DENTON",
    "PHONE":4693227000,
    "BEDS":6
    }
  },
  {
    "type": "Feature",
    "geometry": {
       "type": "Point",
       "coordinates":  [ -96.584679,33.710009 ]
    },
    "properties": {
    "NAME":"TEXOMA MEDICAL CENTER",
    "ADDRESS":"5016 SOUTH US HIGHWAY 75",
    "CITY":"DENISON",
    "STATE":"TX",
    "ZIP":75020,
    "API ADDRESS":"5016 S US Highway 75, Denison, TX 75020",
    "COUNTY":"GRAYSON",
    "PHONE":9034164000,
    "BEDS":5
    }
  },
  {
    "type": "Feature",
    "geometry": {
       "type": "Point",
       "coordinates":  [ -106.264899,31.790579 ]
    },
    "properties": {
    "NAME":"THE HOSPITALS OF PROVIDENCE EAST CAMPUS",
    "ADDRESS":"3280 JOE BATTLE BOULEVARD",
    "CITY":"EL PASO",
    "STATE":"TX",
    "ZIP":79938,
    "API ADDRESS":"3280 Joe Battle Blvd, El Paso, TX 79938",
    "COUNTY":"EL PASO",
    "PHONE":9158322000,
    "BEDS":6
    }
  },
  {
    "type": "Feature",
    "geometry": {
       "type": "Point",
       "coordinates":  [ -98.500328,33.902797 ]
    },
    "properties": {
    "NAME":"UNITED REGIONAL HEALTH CARE SYSTEM",
    "ADDRESS":"1600 11TH STREET",
    "CITY":"WICHITA FALLS",
    "STATE":"TX",
    "ZIP":76301,
    "API ADDRESS":"1600 11th St, Wichita Falls, TX 76301",
    "COUNTY":"WICHITA",
    "PHONE":9407648313,
    "BEDS":14
    }
  },
  {
    "type": "Feature",
    "geometry": {
       "type": "Point",
       "coordinates":  [ -101.892086,33.588252 ]
    },
    "properties": {
    "NAME":"UNIVERSITY MEDICAL CENTER",
    "ADDRESS":"602 INDIANA AVENUE",
    "CITY":"LUBBOCK",
    "STATE":"TX",
    "ZIP":79415,
    "API ADDRESS":"602 Indiana Ave, Lubbock, TX 79415",
    "COUNTY":"LUBBOCK",
    "PHONE":8067758200,
    "BEDS":2
    }
  },
  {
    "type": "Feature",
    "geometry": {
       "type": "Point",
       "coordinates":  [ -94.796235,32.161579 ]
    },
    "properties": {
    "NAME":"UT HEALTH EAST TEXAS HENDERSON HOSPITAL",
    "ADDRESS":"300 WILSON STREET",
    "CITY":"HENDERSON",
    "STATE":"TX",
    "ZIP":75652,
    "API ADDRESS":"300 Wilson St, Henderson, TX 75652",
    "COUNTY":"RUSK",
    "PHONE":9036577541,
    "BEDS":13
    }
  },
  {
    "type": "Feature",
    "geometry": {
       "type": "Point",
       "coordinates":  [ -96.704575,32.834389 ]
    },
    "properties": {
    "NAME":"WHITE ROCK MEDICAL CENTER",
    "ADDRESS":"9440 POPPY DRIVE",
    "CITY":"DALLAS",
    "STATE":"TX",
    "ZIP":75218,
    "API ADDRESS":"9440 Poppy Dr, Dallas, TX 75218",
    "COUNTY":"DALLAS",
    "PHONE":2143246100,
    "BEDS":4
    }
  },
  {
    "type": "Feature",
    "geometry": {
       "type": "Point",
       "coordinates":  [ -98.202966,26.252768 ]
    },
    "properties": {
    "NAME":"WOMENS HOSPITAL AT RENAISSANCE",
    "ADDRESS":"5502 SOUTH MC COLL",
    "CITY":"EDINBURG",
    "STATE":"TX",
    "ZIP":78539,
    "API ADDRESS":"5502 S McColl Rd, Edinburg, TX 78539",
    "COUNTY":"HIDALGO",
    "PHONE":9563625601,
    "BEDS":15
    }
  }
]
}