{
   "type": "FeatureCollection",
   "features": [
  {
    "type": "Feature",
    "geometry": {
       "type": "Point",
       "coordinates":  [ -97.852665,30.008842 ]
    },
    "properties": {
    "NAME":"ASCENSION SETON HAYS",
    "ADDRESS":"6001 KYLE PARKWAY",
    "CITY":"KYLE",
    "STATE":"TX",
    "ZIP":78640,
    "API ADDRESS":"6001 Kyle Pkwy, Kyle, TX 78640",
    "COUNTY":"HAYS",
    "PHONE":5125045058,
    "BEDS":4
    }
  },
  {
    "type": "Feature",
    "geometry": {
       "type": "Point",
       "coordinates":  [ -97.745402,30.304914 ]
    },
    "properties": {
    "NAME":"ASCENSION SETON MEDICAL CENTER AUSTIN",
    "ADDRESS":"1201 WEST 38TH STREET",
    "CITY":"AUSTIN",
    "STATE":"TX",
    "ZIP":78705,
    "API ADDRESS":"1201 W 38th St, Austin, TX 78705",
    "COUNTY":"TRAVIS",
    "PHONE":5123241000,
    "BEDS":44
    }
  },
  {
    "type": "Feature",
    "geometry": {
       "type": "Point",
       "coordinates":  [ -97.651106,30.568164 ]
    },
    "properties": {
    "NAME":"ASCENSION SETON WILLIAMSON",
    "ADDRESS":"201 SETON PARKWAY",
    "CITY":"ROUND ROCK",
    "STATE":"TX",
    "ZIP":78665,
    "API ADDRESS":"201 Seton Pkwy, Round Rock, TX 78665",
    "COUNTY":"WILLIAMSON",
    "PHONE":5123244000,
    "BEDS":8
    }
  },
  {
    "type": "Feature",
    "geometry": {
       "type": "Point",
       "coordinates":  [ -94.11979,30.070357 ]
    },
    "properties": {
    "NAME":"BAPTIST HOSPITALS OF SOUTHEAST TEXAS",
    "ADDRESS":"3080 COLLEGE STREET",
    "CITY":"BEAUMONT",
    "STATE":"TX",
    "ZIP":77701,
    "API ADDRESS":"3080 College St, Beaumont, TX 77701",
    "COUNTY":"JEFFERSON",
    "PHONE":4092125000,
    "BEDS":6
    }
  },
  {
    "type": "Feature",
    "geometry": {
       "type": "Point",
       "coordinates":  [ -97.345545,32.729334 ]
    },
    "properties": {
    "NAME":"BAYLOR SCOTT & WHITE ALL SAINTS MEDICAL CENTER - FORT WORTH",
    "ADDRESS":"1400 8TH AVE",
    "CITY":"FORT WORTH",
    "STATE":"TX",
    "ZIP":76104,
    "API ADDRESS":"1400 8th Ave, Fort Worth, TX 76104",
    "COUNTY":"TARRANT",
    "PHONE":8179262544,
    "BEDS":26
    }
  },
  {
    "type": "Feature",
    "geometry": {
       "type": "Point",
       "coordinates":  [ -96.770669,33.11431 ]
    },
    "properties": {
    "NAME":"BAYLOR SCOTT & WHITE MEDICAL CENTER - CENTENNIAL",
    "ADDRESS":"12505 LEBANON RD",
    "CITY":"FRISCO",
    "STATE":"TX",
    "ZIP":75035,
    "API ADDRESS":"12505 Lebanon Rd, Frisco, TX 75035",
    "COUNTY":"COLLIN",
    "PHONE":4697648000,
    "BEDS":14
    }
  },
  {
    "type": "Feature",
    "geometry": {
       "type": "Point",
       "coordinates":  [ -96.293826,30.579234 ]
    },
    "properties": {
    "NAME":"BAYLOR SCOTT & WHITE MEDICAL CENTER - COLLEGE STATION",
    "ADDRESS":"700 SCOTT AND WHITE DR",
    "CITY":"COLLEGE STATION",
    "STATE":"TX",
    "ZIP":77845,
    "API ADDRESS":"College Station, TX 77845",
    "COUNTY":"BRAZOS",
    "PHONE":9792070100,
    "BEDS":16
    }
  },
  {
    "type": "Feature",
    "geometry": {
       "type": "Point",
       "coordinates":  [ -96.837987,33.10504 ]
    },
    "properties": {
    "NAME":"BAYLOR SCOTT & WHITE MEDICAL CENTER - FRISCO",
    "ADDRESS":"5601 WARREN PARKWAY",
    "CITY":"FRISCO",
    "STATE":"TX",
    "ZIP":75034,
    "API ADDRESS":"5601 Warren Pkwy, Frisco, TX 75034",
    "COUNTY":"COLLIN",
    "PHONE":2144075000,
    "BEDS":8
    }
  },
  {
    "type": "Feature",
    "geometry": {
       "type": "Point",
       "coordinates":  [ -97.093581,32.933873 ]
    },
    "properties": {
    "NAME":"BAYLOR SCOTT & WHITE MEDICAL CENTER - GRAPEVINE",
    "ADDRESS":"1650 W COLLEGE ST",
    "CITY":"GRAPEVINE",
    "STATE":"TX",
    "ZIP":76051,
    "API ADDRESS":"1650 W College St, Grapevine, TX 76051",
    "COUNTY":"TARRANT",
    "PHONE":8174811588,
    "BEDS":21
    }
  },
  {
    "type": "Feature",
    "geometry": {
       "type": "Point",
       "coordinates":  [ -97.157815,31.487525 ]
    },
    "properties": {
    "NAME":"BAYLOR SCOTT & WHITE MEDICAL CENTER - HILLCREST",
    "ADDRESS":"100 HILLCREST MEDICAL BLV",
    "CITY":"WACO",
    "STATE":"TX",
    "ZIP":76712,
    "API ADDRESS":"120 Hillcrest Medical Blvd, Waco, TX 76712",
    "COUNTY":"MCLENNAN",
    "PHONE":2542029414,
    "BEDS":28
    }
  },
  {
    "type": "Feature",
    "geometry": {
       "type": "Point",
       "coordinates":  [ -96.508664,32.917635 ]
    },
    "properties": {
    "NAME":"BAYLOR SCOTT & WHITE MEDICAL CENTER - LAKE POINTE",
    "ADDRESS":"6800 SCENIC DR",
    "CITY":"ROWLETT",
    "STATE":"TX",
    "ZIP":75088,
    "API ADDRESS":"6800 Scenic Dr, Rowlett, TX 75088",
    "COUNTY":"ROCKWALL",
    "PHONE":9725208000,
    "BEDS":21
    }
  },
  {
    "type": "Feature",
    "geometry": {
       "type": "Point",
       "coordinates":  [ -97.971449,30.332918 ]
    },
    "properties": {
    "NAME":"BAYLOR SCOTT & WHITE MEDICAL CENTER - LAKEWAY",
    "ADDRESS":"100 MEDICAL PKWY",
    "CITY":"LAKEWAY",
    "STATE":"TX",
    "ZIP":78738,
    "API ADDRESS":"100 Medical Pkwy, Lakeway, TX 78738",
    "COUNTY":"TRAVIS",
    "PHONE":5126545000,
    "BEDS":11
    }
  },
  {
    "type": "Feature",
    "geometry": {
       "type": "Point",
       "coordinates":  [ -96.682581,33.221085 ]
    },
    "properties": {
    "NAME":"BAYLOR SCOTT & WHITE MEDICAL CENTER - MCKINNEY",
    "ADDRESS":"5252 W UNIVERSITY DR",
    "CITY":"MCKINNEY",
    "STATE":"TX",
    "ZIP":75071,
    "API ADDRESS":"5252 W University Dr, McKinney, TX 75071",
    "COUNTY":"COLLIN",
    "PHONE":4697642200,
    "BEDS":9
    }
  },
  {
    "type": "Feature",
    "geometry": {
       "type": "Point",
       "coordinates":  [ -97.363854,31.077709 ]
    },
    "properties": {
    "NAME":"BAYLOR SCOTT & WHITE MEDICAL CENTER - TEMPLE",
    "ADDRESS":"2401 S 31ST ST",
    "CITY":"TEMPLE",
    "STATE":"TX",
    "ZIP":76508,
    "API ADDRESS":"2401 S 31st St, Temple, TX 76504",
    "COUNTY":"BELL",
    "PHONE":2547242111,
    "BEDS":43
    }
  },
  {
    "type": "Feature",
    "geometry": {
       "type": "Point",
       "coordinates":  [ -96.779474,32.790908 ]
    },
    "properties": {
    "NAME":"BAYLOR UNIVERSITY MEDICAL CENTER",
    "ADDRESS":"3500 GASTON AVENUE",
    "CITY":"DALLAS",
    "STATE":"TX",
    "ZIP":75246,
    "API ADDRESS":"3500 Gaston Ave, Dallas, TX 75246",
    "COUNTY":"DALLAS",
    "PHONE":2148200111,
    "BEDS":83
    }
  },
  {
    "type": "Feature",
    "geometry": {
       "type": "Point",
       "coordinates":  [ -101.919999,35.196207 ]
    },
    "properties": {
    "NAME":"BSA HOSPITAL LLC",
    "ADDRESS":"1600 WALLACE BLVD",
    "CITY":"AMARILLO",
    "STATE":"TX",
    "ZIP":79106,
    "API ADDRESS":"1600 Wallace Blvd, Amarillo, TX 79106",
    "COUNTY":"POTTER",
    "PHONE":8062122000,
    "BEDS":20
    }
  },
  {
    "type": "Feature",
    "geometry": {
       "type": "Point",
       "coordinates":  [ -96.885247,33.028804 ]
    },
    "properties": {
    "NAME":"CARROLLTON REGIONAL MEDICAL CENTER",
    "ADDRESS":"4343 NORTH JOSEY LANE",
    "CITY":"CARROLLTON",
    "STATE":"TX",
    "ZIP":75010,
    "API ADDRESS":"4343 N Josey Ln, Carrollton, TX 75010",
    "COUNTY":"DENTON",
    "PHONE":9724921010,
    "BEDS":13
    }
  },
  {
    "type": "Feature",
    "geometry": {
       "type": "Point",
       "coordinates":  [ -97.812177,30.532424 ]
    },
    "properties": {
    "NAME":"CEDAR PARK REGIONAL MEDICAL CENTER",
    "ADDRESS":"1401 MEDICAL PARKWAY",
    "CITY":"CEDAR PARK",
    "STATE":"TX",
    "ZIP":78613,
    "API ADDRESS":"1401 Medical Pkwy, Cedar Park, TX 78613",
    "COUNTY":"WILLIAMSON",
    "PHONE":5125287000,
    "BEDS":8
    }
  },
  {
    "type": "Feature",
    "geometry": {
       "type": "Point",
       "coordinates":  [ -96.290119,30.582589 ]
    },
    "properties": {
    "NAME":"CHI ST JOSEPH HEALTH - COLLEGE STATION HOSPITAL",
    "ADDRESS":"1604 ROCK PRAIRIE ROAD",
    "CITY":"COLLEGE STATION",
    "STATE":"TX",
    "ZIP":77845,
    "API ADDRESS":"1604 Rock Prairie Rd, College Station, TX 77845",
    "COUNTY":"BRAZOS",
    "PHONE":9797645100,
    "BEDS":13
    }
  },
  {
    "type": "Feature",
    "geometry": {
       "type": "Point",
       "coordinates":  [ -94.743638,31.336811 ]
    },
    "properties": {
    "NAME":"CHI ST LUKES HEALTH MEMORIAL LUFKIN",
    "ADDRESS":"1201 W FRANK AVE",
    "CITY":"LUFKIN",
    "STATE":"TX",
    "ZIP":75904,
    "API ADDRESS":"1201 W Frank Ave, Lufkin, TX 75904",
    "COUNTY":"ANGELINA",
    "PHONE":9366348111,
    "BEDS":8
    }
  },
  {
    "type": "Feature",
    "geometry": {
       "type": "Point",
       "coordinates":  [ -96.837745,32.808994 ]
    },
    "properties": {
    "NAME":"CHILDRENS MEDICAL CENTER OF DALLAS",
    "ADDRESS":"1935 MEDICAL DISTRICT DRIVE",
    "CITY":"DALLAS",
    "STATE":"TX",
    "ZIP":75235,
    "API ADDRESS":"1935 Medical District Dr, Dallas, TX 75235",
    "COUNTY":"DALLAS",
    "PHONE":2144568339,
    "BEDS":74
    }
  },
  {
    "type": "Feature",
    "geometry": {
       "type": "Point",
       "coordinates":  [ -98.497912,29.428136 ]
    },
    "properties": {
    "NAME":"CHRISTUS CHILDRENS",
    "ADDRESS":"333 NORTH SANTA ROSA STREET",
    "CITY":"SAN ANTONIO",
    "STATE":"TX",
    "ZIP":78207,
    "API ADDRESS":"333 N Santa Rosa St, San Antonio, TX 78207",
    "COUNTY":"BEXAR",
    "PHONE":2107042317,
    "BEDS":45
    }
  },
  {
    "type": "Feature",
    "geometry": {
       "type": "Point",
       "coordinates":  [ -94.730171,32.500863 ]
    },
    "properties": {
    "NAME":"CHRISTUS GOOD SHEPHERD MEDICAL CENTER - LONGVIEW",
    "ADDRESS":"700 E MARSHALL AVENUE",
    "CITY":"LONGVIEW",
    "STATE":"TX",
    "ZIP":75601,
    "API ADDRESS":"700 E Marshall Ave, Longview, TX 75601",
    "COUNTY":"GREGG",
    "PHONE":9033151811,
    "BEDS":13
    }
  },
  {
    "type": "Feature",
    "geometry": {
       "type": "Point",
       "coordinates":  [ -95.599927,33.157301 ]
    },
    "properties": {
    "NAME":"CHRISTUS MOTHER FRANCES HOSPITAL - SULPHUR SPRINGS",
    "ADDRESS":"115 AIRPORT ROAD",
    "CITY":"SULPHUR SPRINGS",
    "STATE":"TX",
    "ZIP":75482,
    "API ADDRESS":"115 Airport Rd, Sulphur Springs, TX 75482",
    "COUNTY":"HOPKINS",
    "PHONE":9034394052,
    "BEDS":4
    }
  },
  {
    "type": "Feature",
    "geometry": {
       "type": "Point",
       "coordinates":  [ -95.291902,32.342624 ]
    },
    "properties": {
    "NAME":"CHRISTUS MOTHER FRANCES HOSPITAL - TYLER",
    "ADDRESS":"800 EAST DAWSON",
    "CITY":"TYLER",
    "STATE":"TX",
    "ZIP":75701,
    "API ADDRESS":"800 E Dawson St, Tyler, TX 75701",
    "COUNTY":"SMITH",
    "PHONE":9035315400,
    "BEDS":44
    }
  },
  {
    "type": "Feature",
    "geometry": {
       "type": "Point",
       "coordinates":  [ -97.945825,29.85279 ]
    },
    "properties": {
    "NAME":"CHRISTUS SANTA ROSA HOSPITAL - SAN MARCOS",
    "ADDRESS":"1301 WONDER WORLD DRIVE",
    "CITY":"SAN MARCOS",
    "STATE":"TX",
    "ZIP":78666,
    "API ADDRESS":"1301 Wonder World Dr, San Marcos, TX 78666",
    "COUNTY":"HAYS",
    "PHONE":5123538979,
    "BEDS":9
    }
  },
  {
    "type": "Feature",
    "geometry": {
       "type": "Point",
       "coordinates":  [ -94.131292,30.086619 ]
    },
    "properties": {
    "NAME":"CHRISTUS SOUTHEAST TEXAS - ST ELIZABETH",
    "ADDRESS":"2830 CALDER ST",
    "CITY":"BEAUMONT",
    "STATE":"TX",
    "ZIP":77702,
    "API ADDRESS":"2830 Calder Ave, Beaumont, TX 77702",
    "COUNTY":"JEFFERSON",
    "PHONE":4092367107,
    "BEDS":14
    }
  },
  {
    "type": "Feature",
    "geometry": {
       "type": "Point",
       "coordinates":  [ -97.376406,27.681949 ]
    },
    "properties": {
    "NAME":"CHRISTUS SPOHN HOSPITAL CORPUS CHRISTI SOUTH",
    "ADDRESS":"5950 SARATOGA BOULEVARD",
    "CITY":"CORPUS CHRISTI",
    "STATE":"TX",
    "ZIP":78414,
    "API ADDRESS":"5950 Saratoga Blvd, Corpus Christi, TX 78414",
    "COUNTY":"NUECES",
    "PHONE":3619855103,
    "BEDS":24
    }
  },
  {
    "type": "Feature",
    "geometry": {
       "type": "Point",
       "coordinates":  [ -94.075579,33.464014 ]
    },
    "properties": {
    "NAME":"CHRISTUS ST MICHAEL HEALTH SYSTEM",
    "ADDRESS":"2600 ST MICHAEL DRIVE",
    "CITY":"TEXARKANA",
    "STATE":"TX",
    "ZIP":75503,
    "API ADDRESS":"2600 St Michael Dr, Texarkana, TX 75503",
    "COUNTY":"BOWIE",
    "PHONE":9036142211,
    "BEDS":8
    }
  },
  {
    "type": "Feature",
    "geometry": {
       "type": "Point",
       "coordinates":  [ -97.341846,32.736976 ]
    },
    "properties": {
    "NAME":"COOK CHILDRENS MEDICAL CENTER",
    "ADDRESS":"801 SEVENTH AVENUE",
    "CITY":"FORT WORTH",
    "STATE":"TX",
    "ZIP":76104,
    "API ADDRESS":"801 7th Ave, Fort Worth, TX 76104",
    "COUNTY":"TARRANT",
    "PHONE":6828854326,
    "BEDS":106
    }
  },
  {
    "type": "Feature",
    "geometry": {
       "type": "Point",
       "coordinates":  [ -97.341648,27.69334 ]
    },
    "properties": {
    "NAME":"CORPUS CHRISTI MEDICAL CENTER BAY AREA",
    "ADDRESS":"7101 SOUTH PADRE ISLAND DRIVE",
    "CITY":"CORPUS CHRISTI",
    "STATE":"TX",
    "ZIP":78412,
    "API ADDRESS":"7101 S Padre Island Dr, Corpus Christi, TX 78412",
    "COUNTY":"NUECES",
    "PHONE":3617611200,
    "BEDS":16
    }
  },
  {
    "type": "Feature",
    "geometry": {
       "type": "Point",
       "coordinates":  [ -97.38838,27.754109 ]
    },
    "properties": {
    "NAME":"CORPUS CHRISTI MEDICAL CENTER DOCTORS REGIONAL",
    "ADDRESS":"3315 SOUTH ALAMEDA",
    "CITY":"CORPUS CHRISTI",
    "STATE":"TX",
    "ZIP":78411,
    "API ADDRESS":"3315 S Alameda St, Corpus Christi, TX 78411",
    "COUNTY":"NUECES",
    "PHONE":3617611400,
    "BEDS":8
    }
  },
  {
    "type": "Feature",
    "geometry": {
       "type": "Point",
       "coordinates":  [ -101.900299,33.573954 ]
    },
    "properties": {
    "NAME":"COVENANT CHILDRENS HOSPITAL",
    "ADDRESS":"4015 22ND PLACE",
    "CITY":"LUBBOCK",
    "STATE":"TX",
    "ZIP":79410,
    "API ADDRESS":"4015 22nd Pl, Lubbock, TX 79410",
    "COUNTY":"LUBBOCK",
    "PHONE":8067257960,
    "BEDS":43
    }
  },
  {
    "type": "Feature",
    "geometry": {
       "type": "Point",
       "coordinates":  [ -106.351462,31.756644 ]
    },
    "properties": {
    "NAME":"DEL SOL MEDICAL CENTER A CAMPUS OF LPDS HEALTHCARE",
    "ADDRESS":"10301 GATEWAY BOULEVARD WEST",
    "CITY":"EL PASO",
    "STATE":"TX",
    "ZIP":79925,
    "API ADDRESS":"10301 Gateway Blvd W, El Paso, TX 79925",
    "COUNTY":"EL PASO",
    "PHONE":9155959000,
    "BEDS":21
    }
  },
  {
    "type": "Feature",
    "geometry": {
       "type": "Point",
       "coordinates":  [ -97.706219,30.303505 ]
    },
    "properties": {
    "NAME":"DELL CHILDRENS MEDICAL CENTER",
    "ADDRESS":"4900 MUELLER BLVD",
    "CITY":"AUSTIN",
    "STATE":"TX",
    "ZIP":78723,
    "API ADDRESS":"4900 Mueller Blvd, Austin, TX 78723",
    "COUNTY":"TRAVIS",
    "PHONE":5123240101,
    "BEDS":32
    }
  },
  {
    "type": "Feature",
    "geometry": {
       "type": "Point",
       "coordinates":  [ -97.019618,28.854217 ]
    },
    "properties": {
    "NAME":"DETAR HEALTHCARE SYSTEM",
    "ADDRESS":"101 MEDICAL DRIVE",
    "CITY":"VICTORIA",
    "STATE":"TX",
    "ZIP":77904,
    "API ADDRESS":"101 Medical Dr, Victoria, TX 77904",
    "COUNTY":"VICTORIA",
    "PHONE":3615736100,
    "BEDS":9
    }
  },
  {
    "type": "Feature",
    "geometry": {
       "type": "Point",
       "coordinates":  [ -99.476413,27.607033 ]
    },
    "properties": {
    "NAME":"DOCTORS HOSPITAL OF LAREDO",
    "ADDRESS":"10700 MCPHERSON ROAD",
    "CITY":"LAREDO",
    "STATE":"TX",
    "ZIP":78045,
    "API ADDRESS":"10700 McPherson Rd, Laredo, TX 78045",
    "COUNTY":"WEBB",
    "PHONE":9565232000,
    "BEDS":12
    }
  },
  {
    "type": "Feature",
    "geometry": {
       "type": "Point",
       "coordinates":  [ -97.384405,27.74814 ]
    },
    "properties": {
    "NAME":"DRISCOLL CHILDRENS HOSPITAL",
    "ADDRESS":"3533 SOUTH ALAMEDA",
    "CITY":"CORPUS CHRISTI",
    "STATE":"TX",
    "ZIP":78411,
    "API ADDRESS":"3533 S Alameda St, Corpus Christi, TX 78411",
    "COUNTY":"NUECES",
    "PHONE":3616945021,
    "BEDS":61
    }
  },
  {
    "type": "Feature",
    "geometry": {
       "type": "Point",
       "coordinates":  [ -97.376406,27.681949 ]
    },
    "properties": {
    "NAME":"DRISCOLL CHILDRENS HOSPITAL NEONATAL CARE CENTER",
    "ADDRESS":"5950 SARATOGA BLVD 5TH FLOOR NICU",
    "CITY":"CORPUS CHRISTI",
    "STATE":"TX",
    "ZIP":78414,
    "API ADDRESS":"5950 Saratoga Blvd, Fl 5, Corpus Christi, TX 78414",
    "COUNTY":"NUECES",
    "PHONE":3616945021,
    "BEDS":24
    }
  },
  {
    "type": "Feature",
    "geometry": {
       "type": "Point",
       "coordinates":  [ -106.433843,31.771259 ]
    },
    "properties": {
    "NAME":"EL PASO CHILDRENS HOSPITAL",
    "ADDRESS":"4845 ALAMEDA AVE",
    "CITY":"EL PASO",
    "STATE":"TX",
    "ZIP":79905,
    "API ADDRESS":"4845 Alameda Ave, El Paso, TX 79905",
    "COUNTY":"EL PASO",
    "PHONE":9152428600,
    "BEDS":26
    }
  },
  {
    "type": "Feature",
    "geometry": {
       "type": "Point",
       "coordinates":  [ -95.393774,29.712675 ]
    },
    "properties": {
    "NAME":"HARRIS HEALTH SYSTEM BEN TAUB HOSPITAL",
    "ADDRESS":"1504 TAUB LOOP",
    "CITY":"HOUSTON",
    "STATE":"TX",
    "ZIP":77030,
    "API ADDRESS":"1504 Taub Loop, Houston, TX 77030",
    "COUNTY":"HARRIS",
    "PHONE":3464260478,
    "BEDS":20
    }
  },
  {
    "type": "Feature",
    "geometry": {
       "type": "Point",
       "coordinates":  [ -95.310943,29.811429 ]
    },
    "properties": {
    "NAME":"HARRIS HEALTH SYSTEM LYNDON B JOHNSON HOSPITAL",
    "ADDRESS":"5656 KELLEY STREET",
    "CITY":"HOUSTON",
    "STATE":"TX",
    "ZIP":77026,
    "API ADDRESS":"5656 Kelley St, Houston, TX 77026",
    "COUNTY":"HARRIS",
    "PHONE":3464260478,
    "BEDS":20
    }
  },
  {
    "type": "Feature",
    "geometry": {
       "type": "Point",
       "coordinates":  [ -95.126216,29.539812 ]
    },
    "properties": {
    "NAME":"HCA HOUSTON HEALTHCARE CLEAR LAKE",
    "ADDRESS":"500 MEDICAL CENTER BLVD",
    "CITY":"WEBSTER",
    "STATE":"TX",
    "ZIP":77598,
    "API ADDRESS":"500 Medical Center Blvd, Webster, TX 77598",
    "COUNTY":"HARRIS",
    "PHONE":2813322511,
    "BEDS":61
    }
  },
  {
    "type": "Feature",
    "geometry": {
       "type": "Point",
       "coordinates":  [ -95.46829,30.284117 ]
    },
    "properties": {
    "NAME":"HCA HOUSTON HEALTHCARE CONROE",
    "ADDRESS":"504 MEDICAL CENTER BOULEVARD",
    "CITY":"CONROE",
    "STATE":"TX",
    "ZIP":77304,
    "API ADDRESS":"504 Medical Center Blvd, Conroe, TX 77304",
    "COUNTY":"MONTGOMERY",
    "PHONE":9365391111,
    "BEDS":16
    }
  },
  {
    "type": "Feature",
    "geometry": {
       "type": "Point",
       "coordinates":  [ -95.254977,30.05008 ]
    },
    "properties": {
    "NAME":"HCA HOUSTON HEALTHCARE KINGWOOD",
    "ADDRESS":"22999 US HIGHWAY 59",
    "CITY":"KINGWOOD",
    "STATE":"TX",
    "ZIP":77339,
    "API ADDRESS":"22999 US Highway 59 N, Humble, TX 77339",
    "COUNTY":"MONTGOMERY",
    "PHONE":2813488001,
    "BEDS":24
    }
  },
  {
    "type": "Feature",
    "geometry": {
       "type": "Point",
       "coordinates":  [ -95.440495,30.030067 ]
    },
    "properties": {
    "NAME":"HCA HOUSTON HEALTHCARE NORTHWEST",
    "ADDRESS":"710 CYPRESS CREEK PARKWAY",
    "CITY":"HOUSTON",
    "STATE":"TX",
    "ZIP":77090,
    "API ADDRESS":"709 Cypress Station Dr, Houston, TX 77090",
    "COUNTY":"HARRIS",
    "PHONE":2814401000,
    "BEDS":10
    }
  },
  {
    "type": "Feature",
    "geometry": {
       "type": "Point",
       "coordinates":  [ -95.183755,29.661171 ]
    },
    "properties": {
    "NAME":"HCA HOUSTON HEALTHCARE SOUTHEAST",
    "ADDRESS":"4000 SPENCER HIGHWAY",
    "CITY":"PASADENA",
    "STATE":"TX",
    "ZIP":77504,
    "API ADDRESS":"4000 Spencer Hwy, Pasadena, TX 77504",
    "COUNTY":"HARRIS",
    "PHONE":7133592000,
    "BEDS":14
    }
  },
  {
    "type": "Feature",
    "geometry": {
       "type": "Point",
       "coordinates":  [ -95.620728,30.0874 ]
    },
    "properties": {
    "NAME":"HCA HOUSTON HEALTHCARE TOMBALL",
    "ADDRESS":"605 HOLDERRIETH BOULEVARD",
    "CITY":"TOMBALL",
    "STATE":"TX",
    "ZIP":77375,
    "API ADDRESS":"605 Holderrieth Blvd, Tomball, TX 77375",
    "COUNTY":"HARRIS",
    "PHONE":2814017500,
    "BEDS":7
    }
  },
  {
    "type": "Feature",
    "geometry": {
       "type": "Point",
       "coordinates":  [ -99.665323,32.576489 ]
    },
    "properties": {
    "NAME":"HENDRICK MEDICAL CENTER",
    "ADDRESS":"1900 PINE",
    "CITY":"ABILENE",
    "STATE":"TX",
    "ZIP":79601,
    "API ADDRESS":"Abilene, TX 79601",
    "COUNTY":"TAYLOR",
    "PHONE":3256702000,
    "BEDS":25
    }
  },
  {
    "type": "Feature",
    "geometry": {
       "type": "Point",
       "coordinates":  [ -99.966048,31.908644 ]
    },
    "properties": {
    "NAME":"HENDRICK MEDICAL CENTER SOUTH",
    "ADDRESS":"6250 US HIGHWAY 83",
    "CITY":"ABILENE",
    "STATE":"TX",
    "ZIP":79606,
    "API ADDRESS":"6254 US Hwy 83, Winters, TX 79567",
    "COUNTY":"TAYLOR",
    "PHONE":3254281010,
    "BEDS":16
    }
  },
  {
    "type": "Feature",
    "geometry": {
       "type": "Point",
       "coordinates":  [ -95.631127,29.588964 ]
    },
    "properties": {
    "NAME":"HOUSTON METHODIST SUGAR LAND HOSPITAL",
    "ADDRESS":"16655 SOUTHWEST FWY",
    "CITY":"SUGAR LAND",
    "STATE":"TX",
    "ZIP":77479,
    "API ADDRESS":"16655 Southwest Fwy, Sugar Land, TX 77479",
    "COUNTY":"FORT BEND",
    "PHONE":2812747000,
    "BEDS":7
    }
  },
  {
    "type": "Feature",
    "geometry": {
       "type": "Point",
       "coordinates":  [ -95.451727,30.205188 ]
    },
    "properties": {
    "NAME":"HOUSTON METHODIST THE WOODLANDS HOSPITAL",
    "ADDRESS":"17201 I-45 SOUTH",
    "CITY":"THE WOODLANDS",
    "STATE":"TX",
    "ZIP":77385,
    "API ADDRESS":"17201 I-45 S, Shenandoah, TX 77385",
    "COUNTY":"MONTGOMERY",
    "PHONE":9362702000,
    "BEDS":23
    }
  },
  {
    "type": "Feature",
    "geometry": {
       "type": "Point",
       "coordinates":  [ -95.697905,29.787208 ]
    },
    "properties": {
    "NAME":"HOUSTON METHODIST WEST HOSPITAL",
    "ADDRESS":"18500 KATY FWY",
    "CITY":"HOUSTON",
    "STATE":"TX",
    "ZIP":77094,
    "API ADDRESS":"18500 Katy Fwy, Houston, TX 77094",
    "COUNTY":"HARRIS",
    "PHONE":8325221000,
    "BEDS":19
    }
  },
  {
    "type": "Feature",
    "geometry": {
       "type": "Point",
       "coordinates":  [ -95.551132,29.966597 ]
    },
    "properties": {
    "NAME":"HOUSTON METHODIST WILLOWBROOK HOSPITAL",
    "ADDRESS":"18220 STATE HIGHWAY 249",
    "CITY":"HOUSTON",
    "STATE":"TX",
    "ZIP":77070,
    "API ADDRESS":"18220 Tomball Pkwy, Houston, TX 77070",
    "COUNTY":"HARRIS",
    "PHONE":2817371000,
    "BEDS":10
    }
  },
  {
    "type": "Feature",
    "geometry": {
       "type": "Point",
       "coordinates":  [ -96.123918,33.122487 ]
    },
    "properties": {
    "NAME":"HUNT REGIONAL HEALTHCARE",
    "ADDRESS":"4215 JOE RAMSEY BOULEVARD",
    "CITY":"GREENVILLE",
    "STATE":"TX",
    "ZIP":75401,
    "API ADDRESS":"4215 Joe Ramsey Blvd, Greenville, TX 75401",
    "COUNTY":"HUNT",
    "PHONE":9034085000,
    "BEDS":18
    }
  },
  {
    "type": "Feature",
    "geometry": {
       "type": "Point",
       "coordinates":  [ -97.328127,32.726819 ]
    },
    "properties": {
    "NAME":"JOHN PETER SMITH HOSPITAL",
    "ADDRESS":"1500 S MAIN ST",
    "CITY":"FORT WORTH",
    "STATE":"TX",
    "ZIP":76104,
    "API ADDRESS":"1500 S Main St, Fort Worth, TX 76104",
    "COUNTY":"TARRANT",
    "PHONE":8179213431,
    "BEDS":50
    }
  },
  {
    "type": "Feature",
    "geometry": {
       "type": "Point",
       "coordinates":  [ -99.479962,27.530851 ]
    },
    "properties": {
    "NAME":"LAREDO MEDICAL CENTER",
    "ADDRESS":"1700 EAST SAUNDERS STREET",
    "CITY":"LAREDO",
    "STATE":"TX",
    "ZIP":78041,
    "API ADDRESS":"1700 E Saunders St, Laredo, TX 78041",
    "COUNTY":"WEBB",
    "PHONE":9567965000,
    "BEDS":17
    }
  },
  {
    "type": "Feature",
    "geometry": {
       "type": "Point",
       "coordinates":  [ -106.49823,31.770037 ]
    },
    "properties": {
    "NAME":"LAS PALMAS MEDICAL CENTER A CAMPUS OF LPDS HEALTHCARE",
    "ADDRESS":"1801 NORTH OREGON STREET",
    "CITY":"EL PASO",
    "STATE":"TX",
    "ZIP":79902,
    "API ADDRESS":"1801 N Oregon St, El Paso, TX 79902",
    "COUNTY":"EL PASO",
    "PHONE":9155211776,
    "BEDS":35
    }
  },
  {
    "type": "Feature",
    "geometry": {
       "type": "Point",
       "coordinates":  [ -94.728805,32.532185 ]
    },
    "properties": {
    "NAME":"LONGVIEW REGIONAL MEDICAL CENTER",
    "ADDRESS":"2901 NORTH FOURTH STREET",
    "CITY":"LONGVIEW",
    "STATE":"TX",
    "ZIP":75605,
    "API ADDRESS":"2901 N 4th St, Longview, TX 75605",
    "COUNTY":"GREGG",
    "PHONE":9037581818,
    "BEDS":21
    }
  },
  {
    "type": "Feature",
    "geometry": {
       "type": "Point",
       "coordinates":  [ -102.373391,31.845373 ]
    },
    "properties": {
    "NAME":"MEDICAL CENTER HOSPITAL",
    "ADDRESS":"500 W 4TH ST",
    "CITY":"ODESSA",
    "STATE":"TX",
    "ZIP":79761,
    "API ADDRESS":"500 W 4th St, Odessa, TX 79761",
    "COUNTY":"ECTOR",
    "PHONE":4326402413,
    "BEDS":30
    }
  },
  {
    "type": "Feature",
    "geometry": {
       "type": "Point",
       "coordinates":  [ -97.313977,32.89983 ]
    },
    "properties": {
    "NAME":"MEDICAL CITY ALLIANCE",
    "ADDRESS":"3101 N TARRANT PKWY",
    "CITY":"FORT WORTH",
    "STATE":"TX",
    "ZIP":76177,
    "API ADDRESS":"3101 N Tarrant Pkwy, Fort Worth, TX 76177",
    "COUNTY":"TARRANT",
    "PHONE":8176391100,
    "BEDS":8
    }
  },
  {
    "type": "Feature",
    "geometry": {
       "type": "Point",
       "coordinates":  [ -97.113928,32.690201 ]
    },
    "properties": {
    "NAME":"MEDICAL CITY ARLINGTON",
    "ADDRESS":"3301 MATLOCK RD",
    "CITY":"ARLINGTON",
    "STATE":"TX",
    "ZIP":76015,
    "API ADDRESS":"3301 Matlock Rd, Arlington, TX 76015",
    "COUNTY":"TARRANT",
    "PHONE":8174653241,
    "BEDS":35
    }
  },
  {
    "type": "Feature",
    "geometry": {
       "type": "Point",
       "coordinates":  [ -96.773229,32.911775 ]
    },
    "properties": {
    "NAME":"MEDICAL CITY DALLAS HOSPITAL",
    "ADDRESS":"7777 FOREST LN",
    "CITY":"DALLAS",
    "STATE":"TX",
    "ZIP":75230,
    "API ADDRESS":"7777 Forest Ln, Dallas, TX 75230",
    "COUNTY":"DALLAS",
    "PHONE":9725666000,
    "BEDS":125
    }
  },
  {
    "type": "Feature",
    "geometry": {
       "type": "Point",
       "coordinates":  [ -96.838944,33.150894 ]
    },
    "properties": {
    "NAME":"MEDICAL CITY FRISCO A MEDICAL CENTER OF PLANO FACILITY",
    "ADDRESS":"5500 FRISCO SQUARE BLVD",
    "CITY":"FRISCO",
    "STATE":"TX",
    "ZIP":75034,
    "API ADDRESS":"5500 Frisco Square Blvd, Frisco, TX 75034",
    "COUNTY":"COLLIN",
    "PHONE":2146180500,
    "BEDS":6
    }
  },
  {
    "type": "Feature",
    "geometry": {
       "type": "Point",
       "coordinates":  [ -96.957303,32.902163 ]
    },
    "properties": {
    "NAME":"MEDICAL CITY LAS COLINAS",
    "ADDRESS":"6800 N MACARTHUR BLVD",
    "CITY":"IRVING",
    "STATE":"TX",
    "ZIP":75039,
    "API ADDRESS":"6800 N Macarthur Blvd, Irving, TX 75039",
    "COUNTY":"DALLAS",
    "PHONE":9729692000,
    "BEDS":6
    }
  },
  {
    "type": "Feature",
    "geometry": {
       "type": "Point",
       "coordinates":  [ -97.004532,33.044381 ]
    },
    "properties": {
    "NAME":"MEDICAL CITY LEWISVILLE",
    "ADDRESS":"500 W MAIN ST",
    "CITY":"LEWISVILLE",
    "STATE":"TX",
    "ZIP":75057,
    "API ADDRESS":"500 W Main St, Lewisville, TX 75057",
    "COUNTY":"DENTON",
    "PHONE":4693702707,
    "BEDS":16
    }
  },
  {
    "type": "Feature",
    "geometry": {
       "type": "Point",
       "coordinates":  [ -96.636911,33.159641 ]
    },
    "properties": {
    "NAME":"MEDICAL CITY MCKINNEY",
    "ADDRESS":"4500 MEDICAL CENTER DR",
    "CITY":"MCKINNEY",
    "STATE":"TX",
    "ZIP":75069,
    "API ADDRESS":"4500 Medical Center Dr, McKinney, TX 75069",
    "COUNTY":"COLLIN",
    "PHONE":9725478001,
    "BEDS":7
    }
  },
  {
    "type": "Feature",
    "geometry": {
       "type": "Point",
       "coordinates":  [ -96.766206,33.021675 ]
    },
    "properties": {
    "NAME":"MEDICAL CITY PLANO",
    "ADDRESS":"3901 W 15TH ST",
    "CITY":"PLANO",
    "STATE":"TX",
    "ZIP":75075,
    "API ADDRESS":"3901 W 15th St, Plano, TX 75075",
    "COUNTY":"COLLIN",
    "PHONE":9725191101,
    "BEDS":40
    }
  },
  {
    "type": "Feature",
    "geometry": {
       "type": "Point",
       "coordinates":  [ -95.396173,29.714052 ]
    },
    "properties": {
    "NAME":"MEMORIAL HERMANN - TEXAS MEDICAL CENTER",
    "ADDRESS":"6411 FANNIN",
    "CITY":"HOUSTON",
    "STATE":"TX",
    "ZIP":77030,
    "API ADDRESS":"6411 Fannin St, Houston, TX 77030",
    "COUNTY":"HARRIS",
    "PHONE":7137044000,
    "BEDS":118
    }
  },
  {
    "type": "Feature",
    "geometry": {
       "type": "Point",
       "coordinates":  [ -95.786189,29.787086 ]
    },
    "properties": {
    "NAME":"MEMORIAL HERMANN KATY HOSPITAL",
    "ADDRESS":"23900 KATY FREEWAY",
    "CITY":"KATY",
    "STATE":"TX",
    "ZIP":77494,
    "API ADDRESS":"23900 Katy Fwy, Katy, TX 77494",
    "COUNTY":"HARRIS",
    "PHONE":2816447000,
    "BEDS":15
    }
  },
  {
    "type": "Feature",
    "geometry": {
       "type": "Point",
       "coordinates":  [ -95.545763,29.781137 ]
    },
    "properties": {
    "NAME":"MEMORIAL HERMANN MEMORIAL CITY MEDICAL CENTER",
    "ADDRESS":"921 GESSNER ROAD",
    "CITY":"HOUSTON",
    "STATE":"TX",
    "ZIP":77024,
    "API ADDRESS":"921 Gessner Rd, Houston, TX 77024",
    "COUNTY":"HARRIS",
    "PHONE":7139323000,
    "BEDS":24
    }
  },
  {
    "type": "Feature",
    "geometry": {
       "type": "Point",
       "coordinates":  [ -95.273599,29.994309 ]
    },
    "properties": {
    "NAME":"MEMORIAL HERMANN NORTHEAST HOSPITAL",
    "ADDRESS":"18951 MEMORIAL NORTH",
    "CITY":"HUMBLE",
    "STATE":"TX",
    "ZIP":77338,
    "API ADDRESS":"18951 Memorial Blvd, Humble, TX 77338",
    "COUNTY":"HARRIS",
    "PHONE":2815407700,
    "BEDS":10
    }
  },
  {
    "type": "Feature",
    "geometry": {
       "type": "Point",
       "coordinates":  [ -95.207263,29.58251 ]
    },
    "properties": {
    "NAME":"MEMORIAL HERMANN SOUTHEAST HOSPITAL",
    "ADDRESS":"11800 ASTORIA BOULEVARD",
    "CITY":"HOUSTON",
    "STATE":"TX",
    "ZIP":77089,
    "API ADDRESS":"11800 Astoria Blvd, Houston, TX 77089",
    "COUNTY":"HARRIS",
    "PHONE":2819296100,
    "BEDS":17
    }
  },
  {
    "type": "Feature",
    "geometry": {
       "type": "Point",
       "coordinates":  [ -95.521494,29.692477 ]
    },
    "properties": {
    "NAME":"MEMORIAL HERMANN SOUTHWEST HOSPITAL",
    "ADDRESS":"7600 BEECHNUT",
    "CITY":"HOUSTON",
    "STATE":"TX",
    "ZIP":77074,
    "API ADDRESS":"7600 Beechnut St, Houston, TX 77074",
    "COUNTY":"HARRIS",
    "PHONE":7134565000,
    "BEDS":40
    }
  },
  {
    "type": "Feature",
    "geometry": {
       "type": "Point",
       "coordinates":  [ -95.454003,30.174078 ]
    },
    "properties": {
    "NAME":"MEMORIAL HERMANN THE WOODLANDS MEDICAL CENTER",
    "ADDRESS":"9250 PINECROFT",
    "CITY":"THE WOODLANDS",
    "STATE":"TX",
    "ZIP":77380,
    "API ADDRESS":"9250 Pinecroft Dr, Shenandoah, TX 77380",
    "COUNTY":"MONTGOMERY",
    "PHONE":7138972301,
    "BEDS":24
    }
  },
  {
    "type": "Feature",
    "geometry": {
       "type": "Point",
       "coordinates":  [ -96.825026,32.76156 ]
    },
    "properties": {
    "NAME":"METHODIST DALLAS MEDICAL CENTER",
    "ADDRESS":"1441 NORTH BECKLEY AVENUE",
    "CITY":"DALLAS",
    "STATE":"TX",
    "ZIP":75203,
    "API ADDRESS":"1441 N Beckley Ave, Dallas, TX 75203",
    "COUNTY":"DALLAS",
    "PHONE":2149478181,
    "BEDS":50
    }
  },
  {
    "type": "Feature",
    "geometry": {
       "type": "Point",
       "coordinates":  [ -98.572298,29.507191 ]
    },
    "properties": {
    "NAME":"METHODIST HOSPITAL",
    "ADDRESS":"7700 FLOYD CURL DRIVE",
    "CITY":"SAN ANTONIO",
    "STATE":"TX",
    "ZIP":78229,
    "API ADDRESS":"7700 Floyd Curl Dr, San Antonio, TX 78229",
    "COUNTY":"BEXAR",
    "PHONE":2105754000,
    "BEDS":94
    }
  },
  {
    "type": "Feature",
    "geometry": {
       "type": "Point",
       "coordinates":  [ -98.476211,29.615388 ]
    },
    "properties": {
    "NAME":"METHODIST HOSPITAL | STONE OAK",
    "ADDRESS":"1139 EAST SONTERRA BLVD",
    "CITY":"SAN ANTONIO",
    "STATE":"TX",
    "ZIP":78258,
    "API ADDRESS":"1139 E Sonterra Blvd, San Antonio, TX 78258",
    "COUNTY":"BEXAR",
    "PHONE":2106382000,
    "BEDS":23
    }
  },
  {
    "type": "Feature",
    "geometry": {
       "type": "Point",
       "coordinates":  [ -97.094466,32.568385 ]
    },
    "properties": {
    "NAME":"METHODIST MANSFIELD MEDICAL CENTER",
    "ADDRESS":"2700 E BROAD ST",
    "CITY":"MANSFIELD",
    "STATE":"TX",
    "ZIP":76063,
    "API ADDRESS":"2700 E Broad St, Mansfield, TX 76063",
    "COUNTY":"TARRANT",
    "PHONE":6822426000,
    "BEDS":16
    }
  },
  {
    "type": "Feature",
    "geometry": {
       "type": "Point",
       "coordinates":  [ -96.69137,32.979315 ]
    },
    "properties": {
    "NAME":"METHODIST RICHARDSON MEDICAL CENTER",
    "ADDRESS":"2831 E PRES GEORGE BUSH HWY",
    "CITY":"RICHARDSON",
    "STATE":"TX",
    "ZIP":75082,
    "API ADDRESS":"Richardson, TX 75082",
    "COUNTY":"COLLIN",
    "PHONE":4692042000,
    "BEDS":8
    }
  },
  {
    "type": "Feature",
    "geometry": {
       "type": "Point",
       "coordinates":  [ -96.726424,32.974164 ]
    },
    "properties": {
    "NAME":"METHODIST RICHARDSON MEDICAL CENTER CAMPUS FOR CONTINUING CARE",
    "ADDRESS":"401 W CAMPBELL ROAD",
    "CITY":"RICHARDSON",
    "STATE":"TX",
    "ZIP":75080,
    "API ADDRESS":"401 W Campbell Rd, Richardson, TX 75080",
    "COUNTY":"DALLAS",
    "PHONE":4692042000,
    "BEDS":4
    }
  },
  {
    "type": "Feature",
    "geometry": {
       "type": "Point",
       "coordinates":  [ -98.491008,29.441133 ]
    },
    "properties": {
    "NAME":"METROPOLITAN METHODIST HOSPITAL",
    "ADDRESS":"1310 MCCULLOUGH AVENUE",
    "CITY":"SAN ANTONIO",
    "STATE":"TX",
    "ZIP":78212,
    "API ADDRESS":"1310 McCullough Ave, San Antonio, TX 78212",
    "COUNTY":"BEXAR",
    "PHONE":2107572200,
    "BEDS":16
    }
  },
  {
    "type": "Feature",
    "geometry": {
       "type": "Point",
       "coordinates":  [ -102.100201,31.997566 ]
    },
    "properties": {
    "NAME":"MIDLAND MEMORIAL HOSPITAL",
    "ADDRESS":"400 ROSALIND REDFERN GROVER PKWY",
    "CITY":"MIDLAND",
    "STATE":"TX",
    "ZIP":79701,
    "API ADDRESS":"400 Rosalind Redfern Grover Pkwy, Midland, TX 79701",
    "COUNTY":"MIDLAND",
    "PHONE":4322211111,
    "BEDS":18
    }
  },
  {
    "type": "Feature",
    "geometry": {
       "type": "Point",
       "coordinates":  [ -98.313817,26.196411 ]
    },
    "properties": {
    "NAME":"MISSION REGIONAL MEDICAL CENTER",
    "ADDRESS":"900 SOUTH BRYAN ROAD",
    "CITY":"MISSION",
    "STATE":"TX",
    "ZIP":78572,
    "API ADDRESS":"900 S Bryan Rd, Mission, TX 78572",
    "COUNTY":"HIDALGO",
    "PHONE":9563239103,
    "BEDS":20
    }
  },
  {
    "type": "Feature",
    "geometry": {
       "type": "Point",
       "coordinates":  [ -98.43804,29.344319 ]
    },
    "properties": {
    "NAME":"MISSION TRAIL BAPTIST HOSPITAL",
    "ADDRESS":"3333 RESEARCH PLAZA",
    "CITY":"SAN ANTONIO",
    "STATE":"TX",
    "ZIP":78235,
    "API ADDRESS":"3333 Research Plz, San Antonio, TX 78235",
    "COUNTY":"BEXAR",
    "PHONE":2102973600,
    "BEDS":8
    }
  },
  {
    "type": "Feature",
    "geometry": {
       "type": "Point",
       "coordinates":  [ -97.738627,30.376097 ]
    },
    "properties": {
    "NAME":"NORTH AUSTIN MEDICAL CENTER",
    "ADDRESS":"12221 MOPAC EXPRESSWAY NORTH",
    "CITY":"AUSTIN",
    "STATE":"TX",
    "ZIP":78758,
    "API ADDRESS":"N Mo-Pac Expy, Austin, TX 78759",
    "COUNTY":"TRAVIS",
    "PHONE":5129012529,
    "BEDS":96
    }
  },
  {
    "type": "Feature",
    "geometry": {
       "type": "Point",
       "coordinates":  [ -98.491862,29.620513 ]
    },
    "properties": {
    "NAME":"NORTH CENTRAL BAPTIST HOSPITAL",
    "ADDRESS":"520 MADISON OAK",
    "CITY":"SAN ANTONIO",
    "STATE":"TX",
    "ZIP":78258,
    "API ADDRESS":"520 Madison Oak Dr, San Antonio, TX 78258",
    "COUNTY":"BEXAR",
    "PHONE":2102974600,
    "BEDS":72
    }
  },
  {
    "type": "Feature",
    "geometry": {
       "type": "Point",
       "coordinates":  [ -101.920803,35.199823 ]
    },
    "properties": {
    "NAME":"NORTHWEST TEXAS HOSPITAL",
    "ADDRESS":"1501 SOUTH COULTER STREET",
    "CITY":"AMARILLO",
    "STATE":"TX",
    "ZIP":79106,
    "API ADDRESS":"1501 S Coulter St, Amarillo, TX 79106",
    "COUNTY":"POTTER",
    "PHONE":8063541000,
    "BEDS":50
    }
  },
  {
    "type": "Feature",
    "geometry": {
       "type": "Point",
       "coordinates":  [ -102.365556,31.851086 ]
    },
    "properties": {
    "NAME":"ODESSA REGIONAL MEDICAL CENTER",
    "ADDRESS":"520 EAST SIXTH STREET",
    "CITY":"ODESSA",
    "STATE":"TX",
    "ZIP":79761,
    "API ADDRESS":"520 E 6th St, Odessa, TX 79761",
    "COUNTY":"ECTOR",
    "PHONE":4325828000,
    "BEDS":49
    }
  },
  {
    "type": "Feature",
    "geometry": {
       "type": "Point",
       "coordinates":  [ -96.837839,32.811035 ]
    },
    "properties": {
    "NAME":"PARKLAND MEMORIAL HOSPITAL",
    "ADDRESS":"5200 - 5201 HARRY HINES BOULEVARD",
    "CITY":"DALLAS",
    "STATE":"TX",
    "ZIP":75235,
    "API ADDRESS":"5201 Harry Hines Blvd, Dallas, TX 75235",
    "COUNTY":"DALLAS",
    "PHONE":2145900356,
    "BEDS":84
    }
  },
  {
    "type": "Feature",
    "geometry": {
       "type": "Point",
       "coordinates":  [ -98.070208,29.721947 ]
    },
    "properties": {
    "NAME":"RESOLUTE BAPTIST HOSPITAL",
    "ADDRESS":"555 CREEKSIDE CROSSING",
    "CITY":"NEW BRAUNFELS",
    "STATE":"TX",
    "ZIP":78130,
    "API ADDRESS":"555 Creekside Xing, New Braunfels, TX 78130",
    "COUNTY":"COMAL",
    "PHONE":8305006602,
    "BEDS":16
    }
  },
  {
    "type": "Feature",
    "geometry": {
       "type": "Point",
       "coordinates":  [ -98.222486,26.186287 ]
    },
    "properties": {
    "NAME":"RIO GRANDE REGIONAL HOSPITAL",
    "ADDRESS":"101 E RIDGE ROAD",
    "CITY":"MCALLEN",
    "STATE":"TX",
    "ZIP":78503,
    "API ADDRESS":"101 E Ridge Rd, McAllen, TX 78503",
    "COUNTY":"HIDALGO",
    "PHONE":9566326000,
    "BEDS":32
    }
  },
  {
    "type": "Feature",
    "geometry": {
       "type": "Point",
       "coordinates":  [ -97.713493,30.510718 ]
    },
    "properties": {
    "NAME":"ROUND ROCK MEDICAL CENTER",
    "ADDRESS":"2400 ROUND ROCK AVENUE",
    "CITY":"ROUND ROCK",
    "STATE":"TX",
    "ZIP":78681,
    "API ADDRESS":"2400 Round Rock Ave, Round Rock, TX 78681",
    "COUNTY":"WILLIAMSON",
    "PHONE":5123411000,
    "BEDS":12
    }
  },
  {
    "type": "Feature",
    "geometry": {
       "type": "Point",
       "coordinates":  [ -100.434641,31.465082 ]
    },
    "properties": {
    "NAME":"SHANNON MEDICAL CENTER",
    "ADDRESS":"120 E HARRIS AVE",
    "CITY":"SAN ANGELO",
    "STATE":"TX",
    "ZIP":76903,
    "API ADDRESS":"120 E Harris Ave, San Angelo, TX 76903",
    "COUNTY":"TOM GREEN",
    "PHONE":3256536741,
    "BEDS":4
    }
  },
  {
    "type": "Feature",
    "geometry": {
       "type": "Point",
       "coordinates":  [ -100.46964,31.418433 ]
    },
    "properties": {
    "NAME":"SHANNON MEDICAL CENTER SOUTH",
    "ADDRESS":"3501 KNICKERBOCKER RD",
    "CITY":"SAN ANGELO",
    "STATE":"TX",
    "ZIP":76904,
    "API ADDRESS":"3501 Knickerbocker Rd, San Angelo, TX 76904",
    "COUNTY":"TOM GREEN",
    "PHONE":3259499511,
    "BEDS":6
    }
  },
  {
    "type": "Feature",
    "geometry": {
       "type": "Point",
       "coordinates":  [ -98.225692,26.186457 ]
    },
    "properties": {
    "NAME":"SOUTH TEXAS HEALTH SYSTEM MCALLEN",
    "ADDRESS":"301 WEST EXPRESSWAY 83",
    "CITY":"MCALLEN",
    "STATE":"TX",
    "ZIP":78503,
    "API ADDRESS":"301 Expwy 83, McAllen, TX 78503",
    "COUNTY":"HIDALGO",
    "PHONE":9566324000,
    "BEDS":46
    }
  },
  {
    "type": "Feature",
    "geometry": {
       "type": "Point",
       "coordinates":  [ -97.726745,30.290681 ]
    },
    "properties": {
    "NAME":"ST DAVIDS MEDICAL CENTER",
    "ADDRESS":"919 E 32ND STREET",
    "CITY":"AUSTIN",
    "STATE":"TX",
    "ZIP":78705,
    "API ADDRESS":"919 E 32nd St, Austin, TX 78705",
    "COUNTY":"TRAVIS",
    "PHONE":5124767111,
    "BEDS":32
    }
  },
  {
    "type": "Feature",
    "geometry": {
       "type": "Point",
       "coordinates":  [ -95.366207,29.748091 ]
    },
    "properties": {
    "NAME":"ST JOSEPH MEDICAL CENTER",
    "ADDRESS":"1401 ST JOSEPH PARKWAY",
    "CITY":"HOUSTON",
    "STATE":"TX",
    "ZIP":77002,
    "API ADDRESS":"1401 St Joseph Pkwy, Houston, TX 77002",
    "COUNTY":"HARRIS",
    "PHONE":7137565007,
    "BEDS":29
    }
  },
  {
    "type": "Feature",
    "geometry": {
       "type": "Point",
       "coordinates":  [ -96.346726,30.655929 ]
    },
    "properties": {
    "NAME":"ST JOSEPH REGIONAL HEALTH CENTER",
    "ADDRESS":"2801 FRANCISCAN DRIVE",
    "CITY":"BRYAN",
    "STATE":"TX",
    "ZIP":77802,
    "API ADDRESS":"2801 Franciscan Dr, Bryan, TX 77802",
    "COUNTY":"BRAZOS",
    "PHONE":9797763777,
    "BEDS":4
    }
  },
  {
    "type": "Feature",
    "geometry": {
       "type": "Point",
       "coordinates":  [ -98.574718,29.512373 ]
    },
    "properties": {
    "NAME":"ST LUKES BAPTIST HOSPITAL",
    "ADDRESS":"7930 FLOYD CURL DRIVE",
    "CITY":"SAN ANTONIO",
    "STATE":"TX",
    "ZIP":78229,
    "API ADDRESS":"7930 Floyd Curl Dr, San Antonio, TX 78229",
    "COUNTY":"BEXAR",
    "PHONE":2102975600,
    "BEDS":36
    }
  },
  {
    "type": "Feature",
    "geometry": {
       "type": "Point",
       "coordinates":  [ -95.567478,29.989252 ]
    },
    "properties": {
    "NAME":"ST LUKES HOSPITAL AT THE VINTAGE",
    "ADDRESS":"20171 CHASEWOOD PARK DR",
    "CITY":"HOUSTON",
    "STATE":"TX",
    "ZIP":77070,
    "API ADDRESS":"20171 Chasewood Park Dr, Houston, TX 77070",
    "COUNTY":"HARRIS",
    "PHONE":8325345000,
    "BEDS":4
    }
  },
  {
    "type": "Feature",
    "geometry": {
       "type": "Point",
       "coordinates":  [ -95.620268,29.603754 ]
    },
    "properties": {
    "NAME":"ST LUKES SUGAR LAND HOSPITAL",
    "ADDRESS":"1317 LAKE POINTE PARKWAY",
    "CITY":"SUGAR LAND",
    "STATE":"TX",
    "ZIP":77478,
    "API ADDRESS":"1317 Lake Pointe Pkwy, Sugar Land, TX 77478",
    "COUNTY":"FORT BEND",
    "PHONE":2816377000,
    "BEDS":5
    }
  },
  {
    "type": "Feature",
    "geometry": {
       "type": "Point",
       "coordinates":  [ -95.458625,30.205221 ]
    },
    "properties": {
    "NAME":"ST LUKES THE WOODLANDS HOSPITAL",
    "ADDRESS":"17200 ST LUKES WAY",
    "CITY":"THE WOODLANDS",
    "STATE":"TX",
    "ZIP":77384,
    "API ADDRESS":"17200 St Lukes Way, Conroe, TX 77384",
    "COUNTY":"MONTGOMERY",
    "PHONE":9362662000,
    "BEDS":10
    }
  },
  {
    "type": "Feature",
    "geometry": {
       "type": "Point",
       "coordinates":  [ -95.400365,29.708155 ]
    },
    "properties": {
    "NAME":"TEXAS CHILDRENS HOSPITAL",
    "ADDRESS":"6621 FANNIN STREET",
    "CITY":"HOUSTON",
    "STATE":"TX",
    "ZIP":77030,
    "API ADDRESS":"6621 Fannin St, Houston, TX 77030",
    "COUNTY":"HARRIS",
    "PHONE":8328241000,
    "BEDS":167
    }
  },
  {
    "type": "Feature",
    "geometry": {
       "type": "Point",
       "coordinates":  [ -95.457618,30.200999 ]
    },
    "properties": {
    "NAME":"TEXAS CHILDRENS HOSPITAL THE WOODLANDS",
    "ADDRESS":"17600 INTERSTATE 45 SOUTH",
    "CITY":"THE WOODLANDS",
    "STATE":"TX",
    "ZIP":77384,
    "API ADDRESS":"17600 S I-45, Conroe, TX 77384",
    "COUNTY":"MONTGOMERY",
    "PHONE":9362675000,
    "BEDS":14
    }
  },
  {
    "type": "Feature",
    "geometry": {
       "type": "Point",
       "coordinates":  [ -97.114841,32.751423 ]
    },
    "properties": {
    "NAME":"TEXAS HEALTH ARLINGTON MEMORIAL HOSPITAL",
    "ADDRESS":"800 W RANDOL MILL RD",
    "CITY":"ARLINGTON",
    "STATE":"TX",
    "ZIP":76012,
    "API ADDRESS":"800 W Randol Mill Rd, Arlington, TX 76012",
    "COUNTY":"TARRANT",
    "PHONE":8179606535,
    "BEDS":20
    }
  },
  {
    "type": "Feature",
    "geometry": {
       "type": "Point",
       "coordinates":  [ -97.314045,32.897857 ]
    },
    "properties": {
    "NAME":"TEXAS HEALTH HARRIS METHODIST HOSPITAL ALLIANCE",
    "ADDRESS":"10864 TEXAS HEALTH TRL",
    "CITY":"FORT WORTH",
    "STATE":"TX",
    "ZIP":76244,
    "API ADDRESS":"10864 Texas Health Trl, Fort Worth, TX 76244",
    "COUNTY":"TARRANT",
    "PHONE":6822122000,
    "BEDS":8
    }
  },
  {
    "type": "Feature",
    "geometry": {
       "type": "Point",
       "coordinates":  [ -97.33891,32.736811 ]
    },
    "properties": {
    "NAME":"TEXAS HEALTH HARRIS METHODIST HOSPITAL FORT WORTH",
    "ADDRESS":"1301 PENNSYLVANIA AVE",
    "CITY":"FORT WORTH",
    "STATE":"TX",
    "ZIP":76104,
    "API ADDRESS":"1301 Pennsylvania Ave, Fort Worth, TX 76104",
    "COUNTY":"TARRANT",
    "PHONE":8172502000,
    "BEDS":53
    }
  },
  {
    "type": "Feature",
    "geometry": {
       "type": "Point",
       "coordinates":  [ -97.123334,32.835072 ]
    },
    "properties": {
    "NAME":"TEXAS HEALTH HARRIS METHODIST HOSPITAL HURST-EULESS-BEDFORD",
    "ADDRESS":"1600 HOSPITAL PKWY",
    "CITY":"BEDFORD",
    "STATE":"TX",
    "ZIP":76022,
    "API ADDRESS":"1600 Hospital Pkwy, Bedford, TX 76022",
    "COUNTY":"TARRANT",
    "PHONE":8178484602,
    "BEDS":16
    }
  },
  {
    "type": "Feature",
    "geometry": {
       "type": "Point",
       "coordinates":  [ -97.420746,32.657808 ]
    },
    "properties": {
    "NAME":"TEXAS HEALTH HARRIS METHODIST HOSPITAL SOUTHWEST FORT WORTH",
    "ADDRESS":"6100 HARRIS PKWY",
    "CITY":"FORT WORTH",
    "STATE":"TX",
    "ZIP":76132,
    "API ADDRESS":"6100 Harris Pkwy, Fort Worth, TX 76132",
    "COUNTY":"TARRANT",
    "PHONE":8174335000,
    "BEDS":16
    }
  },
  {
    "type": "Feature",
    "geometry": {
       "type": "Point",
       "coordinates":  [ -96.837082,33.181516 ]
    },
    "properties": {
    "NAME":"TEXAS HEALTH HOSPITAL FRISCO",
    "ADDRESS":"12400 DALLAS PKWY",
    "CITY":"FRISCO",
    "STATE":"TX",
    "ZIP":75033,
    "API ADDRESS":"12400 Dallas Pkwy, Frisco, TX 75033",
    "COUNTY":"COLLIN",
    "PHONE":4694952000,
    "BEDS":8
    }
  },
  {
    "type": "Feature",
    "geometry": {
       "type": "Point",
       "coordinates":  [ -96.673545,33.116231 ]
    },
    "properties": {
    "NAME":"TEXAS HEALTH PRESBYTERIAN HOSPITAL ALLEN",
    "ADDRESS":"1105 CENTRAL EXPY N",
    "CITY":"ALLEN",
    "STATE":"TX",
    "ZIP":75013,
    "API ADDRESS":"1105 N Central Expy, Allen, TX 75013",
    "COUNTY":"COLLIN",
    "PHONE":9727471000,
    "BEDS":6
    }
  },
  {
    "type": "Feature",
    "geometry": {
       "type": "Point",
       "coordinates":  [ -96.761274,32.879541 ]
    },
    "properties": {
    "NAME":"TEXAS HEALTH PRESBYTERIAN HOSPITAL DALLAS",
    "ADDRESS":"8200 WALNUT HILL LN",
    "CITY":"DALLAS",
    "STATE":"TX",
    "ZIP":75231,
    "API ADDRESS":"8200 Walnut Hill Ln, Dallas, TX 75231",
    "COUNTY":"DALLAS",
    "PHONE":2143456789,
    "BEDS":91
    }
  },
  {
    "type": "Feature",
    "geometry": {
       "type": "Point",
       "coordinates":  [ -97.099445,33.17919 ]
    },
    "properties": {
    "NAME":"TEXAS HEALTH PRESBYTERIAN HOSPITAL DENTON",
    "ADDRESS":"3000 I 35 NORTH",
    "CITY":"DENTON",
    "STATE":"TX",
    "ZIP":76201,
    "API ADDRESS":"3008 S I-35 E, Denton, TX 76210",
    "COUNTY":"DENTON",
    "PHONE":9408987191,
    "BEDS":10
    }
  },
  {
    "type": "Feature",
    "geometry": {
       "type": "Point",
       "coordinates":  [ -96.838405,33.044047 ]
    },
    "properties": {
    "NAME":"TEXAS HEALTH PRESBYTERIAN HOSPITAL PLANO",
    "ADDRESS":"6200 W PARKER RD",
    "CITY":"PLANO",
    "STATE":"TX",
    "ZIP":75093,
    "API ADDRESS":"6200 W Parker Rd, Plano, TX 75093",
    "COUNTY":"COLLIN",
    "PHONE":9729818000,
    "BEDS":45
    }
  },
  {
    "type": "Feature",
    "geometry": {
       "type": "Point",
       "coordinates":  [ -96.584679,33.710009 ]
    },
    "properties": {
    "NAME":"TEXOMA MEDICAL CENTER",
    "ADDRESS":"5016 SOUTH US HIGHWAY 75",
    "CITY":"DENISON",
    "STATE":"TX",
    "ZIP":75020,
    "API ADDRESS":"5016 S US Highway 75, Denison, TX 75020",
    "COUNTY":"GRAYSON",
    "PHONE":9034164000,
    "BEDS":12
    }
  },
  {
    "type": "Feature",
    "geometry": {
       "type": "Point",
       "coordinates":  [ -106.264899,31.790579 ]
    },
    "properties": {
    "NAME":"THE HOSPITALS OF PROVIDENCE EAST CAMPUS",
    "ADDRESS":"3280 JOE BATTLE BOULEVARD",
    "CITY":"EL PASO",
    "STATE":"TX",
    "ZIP":79938,
    "API ADDRESS":"3280 Joe Battle Blvd, El Paso, TX 79938",
    "COUNTY":"EL PASO",
    "PHONE":9158322000,
    "BEDS":12
    }
  },
  {
    "type": "Feature",
    "geometry": {
       "type": "Point",
       "coordinates":  [ -106.499726,31.771502 ]
    },
    "properties": {
    "NAME":"THE HOSPITALS OF PROVIDENCE MEMORIAL CAMPUS",
    "ADDRESS":"2001 NORTH OREGON STREET",
    "CITY":"EL PASO",
    "STATE":"TX",
    "ZIP":79902,
    "API ADDRESS":"2001 N Oregon St, El Paso, TX 79902",
    "COUNTY":"EL PASO",
    "PHONE":9155776011,
    "BEDS":30
    }
  },
  {
    "type": "Feature",
    "geometry": {
       "type": "Point",
       "coordinates":  [ -106.542594,31.892468 ]
    },
    "properties": {
    "NAME":"THE HOSPITALS OF PROVIDENCE TRANSMOUNTAIN CAMPUS",
    "ADDRESS":"2000 TRANSMOUNTAIN RD",
    "CITY":"EL PASO",
    "STATE":"TX",
    "ZIP":79911,
    "API ADDRESS":"El Paso, TX 79911",
    "COUNTY":"EL PASO",
    "PHONE":9158778136,
    "BEDS":6
    }
  },
  {
    "type": "Feature",
    "geometry": {
       "type": "Point",
       "coordinates":  [ -93.988304,29.933896 ]
    },
    "properties": {
    "NAME":"THE MEDICAL CENTER OF SOUTHEAST TEXAS",
    "ADDRESS":"2555 JIMMY JOHNSON BLVD",
    "CITY":"PORT ARTHUR",
    "STATE":"TX",
    "ZIP":77640,
    "API ADDRESS":"2555 Jimmy Johnson Blvd, Port Arthur, TX 77640",
    "COUNTY":"JEFFERSON",
    "PHONE":4098535902,
    "BEDS":10
    }
  },
  {
    "type": "Feature",
    "geometry": {
       "type": "Point",
       "coordinates":  [ -95.402355,29.693102 ]
    },
    "properties": {
    "NAME":"THE WOMANS HOSPITAL OF TEXAS",
    "ADDRESS":"7600 FANNIN STREET",
    "CITY":"HOUSTON",
    "STATE":"TX",
    "ZIP":77054,
    "API ADDRESS":"7600 Fannin St, Houston, TX 77054",
    "COUNTY":"HARRIS",
    "PHONE":7137901234,
    "BEDS":146
    }
  },
  {
    "type": "Feature",
    "geometry": {
       "type": "Point",
       "coordinates":  [ -98.578904,29.508584 ]
    },
    "properties": {
    "NAME":"UNIVERSITY HOSPITAL",
    "ADDRESS":"4502 MEDICAL DRIVE",
    "CITY":"SAN ANTONIO",
    "STATE":"TX",
    "ZIP":78229,
    "API ADDRESS":"4502 Medical Dr, San Antonio, TX 78229",
    "COUNTY":"BEXAR",
    "PHONE":2103584000,
    "BEDS":58
    }
  },
  {
    "type": "Feature",
    "geometry": {
       "type": "Point",
       "coordinates":  [ -101.892086,33.588252 ]
    },
    "properties": {
    "NAME":"UNIVERSITY MEDICAL CENTER",
    "ADDRESS":"602 INDIANA AVENUE",
    "CITY":"LUBBOCK",
    "STATE":"TX",
    "ZIP":79415,
    "API ADDRESS":"602 Indiana Ave, Lubbock, TX 79415",
    "COUNTY":"LUBBOCK",
    "PHONE":8067758200,
    "BEDS":41
    }
  },
  {
    "type": "Feature",
    "geometry": {
       "type": "Point",
       "coordinates":  [ -95.291088,32.338206 ]
    },
    "properties": {
    "NAME":"UT HEALTH EAST TEXAS TYLER REGIONAL HOSPITAL",
    "ADDRESS":"1000 SOUTH BECKHAM AVENUE",
    "CITY":"TYLER",
    "STATE":"TX",
    "ZIP":75701,
    "API ADDRESS":"1000 S Beckham Ave, Tyler, TX 75701",
    "COUNTY":"SMITH",
    "PHONE":9035970351,
    "BEDS":9
    }
  },
  {
    "type": "Feature",
    "geometry": {
       "type": "Point",
       "coordinates":  [ -97.671586,26.17459 ]
    },
    "properties": {
    "NAME":"VALLEY BAPTIST MEDICAL CENTER",
    "ADDRESS":"2101 PEASE ST",
    "CITY":"HARLINGEN",
    "STATE":"TX",
    "ZIP":78550,
    "API ADDRESS":"2101 Pease St, Harlingen, TX 78550",
    "COUNTY":"CAMERON",
    "PHONE":9563891674,
    "BEDS":38
    }
  },
  {
    "type": "Feature",
    "geometry": {
       "type": "Point",
       "coordinates":  [ -97.509916,25.916015 ]
    },
    "properties": {
    "NAME":"VALLEY BAPTIST MEDICAL CENTER - BROWNSVILLE",
    "ADDRESS":"1040 W JEFFERSON ST",
    "CITY":"BROWNSVILLE",
    "STATE":"TX",
    "ZIP":78520,
    "API ADDRESS":"W Jefferson St, Brownsville, TX 78520",
    "COUNTY":"CAMERON",
    "PHONE":9566985421,
    "BEDS":36
    }
  },
  {
    "type": "Feature",
    "geometry": {
       "type": "Point",
       "coordinates":  [ -97.497577,25.980037 ]
    },
    "properties": {
    "NAME":"VALLEY REGIONAL MEDICAL CENTER",
    "ADDRESS":"100A E ALTON GLOOR BLVD",
    "CITY":"BROWNSVILLE",
    "STATE":"TX",
    "ZIP":78526,
    "API ADDRESS":"100 E Alton Gloor Blvd, Brownsville, TX 78526",
    "COUNTY":"CAMERON",
    "PHONE":9563507000,
    "BEDS":10
    }
  },
  {
    "type": "Feature",
    "geometry": {
       "type": "Point",
       "coordinates":  [ -98.202966,26.252768 ]
    },
    "properties": {
    "NAME":"WOMENS HOSPITAL AT RENAISSANCE",
    "ADDRESS":"5502 SOUTH MC COLL",
    "CITY":"EDINBURG",
    "STATE":"TX",
    "ZIP":78539,
    "API ADDRESS":"5502 S McColl Rd, Edinburg, TX 78539",
    "COUNTY":"HIDALGO",
    "PHONE":9563625601,
    "BEDS":48
    }
  },
  {
    "type": "Feature",
    "geometry": {
       "type": "Point",
       "coordinates":  [ -94.756536,31.329219 ]
    },
    "properties": {
    "NAME":"WOODLAND HEIGHTS MEDICAL CENTER",
    "ADDRESS":"505 SOUTH JOHN REDDITT DRIVE",
    "CITY":"LUFKIN",
    "STATE":"TX",
    "ZIP":75904,
    "API ADDRESS":"505 S John Redditt Dr, Lufkin, TX 75904",
    "COUNTY":"ANGELINA",
    "PHONE":9366378501,
    "BEDS":15
    }
  }
]
}